{"type":"FeatureCollection","features":[{"type":"Feature","id":"PTV_METRO_TRAM_STOP.fid-364680f9_183c55e9406_560e","geometry":{"type":"Point","coordinates":[144.9454,-37.7566]},"geometry_name":"SHAPE","properties":{"OBJECTID":418,"STOP_ID":"18079","STOP_NAME":"38-Jacobs Reserve/Melville Rd (Brunswick West)","LATITUDE":-37.756623,"LONGITUDE":144.945385,"TICKETZONE":"1","ROUTES_USING_STOP":"58","SE_ANNO_CAD_DATA":null},"bbox":[144.9454,-37.7566,144.9454,-37.7566]},{"type":"Feature","id":"PTV_METRO_TRAM_STOP.fid-364680f9_183c55e9406_560f","geometry":{"type":"Point","coordinates":[144.9457,-37.7548]},"geometry_name":"SHAPE","properties":{"OBJECTID":419,"STOP_ID":"18080","STOP_NAME":"39-Mattingley Cres/Melville Rd (Brunswick West)","LATITUDE":-37.7548,"LONGITUDE":144.945708,"TICKETZONE":"1","ROUTES_USING_STOP":"58","SE_ANNO_CAD_DATA":null},"bbox":[144.9457,-37.7548,144.9457,-37.7548]},{"type":"Feature","id":"PTV_METRO_TRAM_STOP.fid-364680f9_183c55e9406_5610","geometry":{"type":"Point","coordinates":[144.9459,-37.7532]},"geometry_name":"SHAPE","properties":{"OBJECTID":420,"STOP_ID":"18081","STOP_NAME":"40-Moreland Rd/Melville Rd (Brunswick West)","LATITUDE":-37.753163,"LONGITUDE":144.945901,"TICKETZONE":"1","ROUTES_USING_STOP":"58","SE_ANNO_CAD_DATA":null},"bbox":[144.9459,-37.7532,144.9459,-37.7532]},{"type":"Feature","id":"PTV_METRO_TRAM_STOP.fid-364680f9_183c55e9406_5611","geometry":{"type":"Point","coordinates":[144.9466,-37.7493]},"geometry_name":"SHAPE","properties":{"OBJECTID":421,"STOP_ID":"18082","STOP_NAME":"41-Woodlands Ave/Melville Rd (Pascoe Vale South)","LATITUDE":-37.749317,"LONGITUDE":144.946552,"TICKETZONE":"1","ROUTES_USING_STOP":"58","SE_ANNO_CAD_DATA":null},"bbox":[144.9466,-37.7493,144.9466,-37.7493]},{"type":"Feature","id":"PTV_METRO_TRAM_STOP.fid-364680f9_183c55e9406_5612","geometry":{"type":"Point","coordinates":[144.9446,-37.7464]},"geometry_name":"SHAPE","properties":{"OBJECTID":422,"STOP_ID":"18083","STOP_NAME":"42-Reynard St/Melville Rd (Pascoe Vale South)","LATITUDE":-37.746399,"LONGITUDE":144.944556,"TICKETZONE":"1","ROUTES_USING_STOP":"58","SE_ANNO_CAD_DATA":null},"bbox":[144.9446,-37.7464,144.9446,-37.7464]},{"type":"Feature","id":"PTV_METRO_TRAM_STOP.fid-364680f9_183c55e9406_5613","geometry":{"type":"Point","coordinates":[144.945,-37.7439]},"geometry_name":"SHAPE","properties":{"OBJECTID":423,"STOP_ID":"18084","STOP_NAME":"43-Princes Tce/Melville Rd (Pascoe Vale South)","LATITUDE":-37.743928,"LONGITUDE":144.944999,"TICKETZONE":"1","ROUTES_USING_STOP":"58","SE_ANNO_CAD_DATA":null},"bbox":[144.945,-37.7439,144.945,-37.7439]},{"type":"Feature","id":"PTV_METRO_TRAM_STOP.fid-364680f9_183c55e9406_5614","geometry":{"type":"Point","coordinates":[144.9454,-37.7416]},"geometry_name":"SHAPE","properties":{"OBJECTID":424,"STOP_ID":"18085","STOP_NAME":"44-Brearley Pde/Melville Rd (Pascoe Vale South)","LATITUDE":-37.741592,"LONGITUDE":144.945404,"TICKETZONE":"1","ROUTES_USING_STOP":"58","SE_ANNO_CAD_DATA":null},"bbox":[144.9454,-37.7416,144.9454,-37.7416]},{"type":"Feature","id":"PTV_METRO_TRAM_STOP.fid-364680f9_183c55e9406_5615","geometry":{"type":"Point","coordinates":[144.9456,-37.7401]},"geometry_name":"SHAPE","properties":{"OBJECTID":425,"STOP_ID":"18086","STOP_NAME":"45-Bell St/Melville Rd (Pascoe Vale South)","LATITUDE":-37.740117,"LONGITUDE":144.945592,"TICKETZONE":"1","ROUTES_USING_STOP":"58","SE_ANNO_CAD_DATA":null},"bbox":[144.9456,-37.7401,144.9456,-37.7401]},{"type":"Feature","id":"PTV_METRO_TRAM_STOP.fid-364680f9_183c55e9406_5616","geometry":{"type":"Point","coordinates":[144.9618,-37.8191]},"geometry_name":"SHAPE","properties":{"OBJECTID":426,"STOP_ID":"18087","STOP_NAME":"3-Market St/Flinders St (Melbourne City)","LATITUDE":-37.819063,"LONGITUDE":144.961797,"TICKETZONE":"1","ROUTES_USING_STOP":"70,75,35","SE_ANNO_CAD_DATA":null},"bbox":[144.9618,-37.8191,144.9618,-37.8191]},{"type":"Feature","id":"PTV_METRO_TRAM_STOP.fid-364680f9_183c55e9406_5617","geometry":{"type":"Point","coordinates":[144.9646,-37.8182]},"geometry_name":"SHAPE","properties":{"OBJECTID":427,"STOP_ID":"18089","STOP_NAME":"4-Elizabeth St/Flinders St (Melbourne City)","LATITUDE":-37.818238,"LONGITUDE":144.964626,"TICKETZONE":"1","ROUTES_USING_STOP":"70,75,35","SE_ANNO_CAD_DATA":null},"bbox":[144.9646,-37.8182,144.9646,-37.8182]},{"type":"Feature","id":"PTV_METRO_TRAM_STOP.fid-364680f9_183c55e9406_5618","geometry":{"type":"Point","coordinates":[144.9671,-37.8176]},"geometry_name":"SHAPE","properties":{"OBJECTID":428,"STOP_ID":"18090","STOP_NAME":"5-Swanston St/Flinders St (Melbourne City)","LATITUDE":-37.81756,"LONGITUDE":144.967132,"TICKETZONE":"1","ROUTES_USING_STOP":"70,75,35","SE_ANNO_CAD_DATA":null},"bbox":[144.9671,-37.8176,144.9671,-37.8176]},{"type":"Feature","id":"PTV_METRO_TRAM_STOP.fid-364680f9_183c55e9406_5619","geometry":{"type":"Point","coordinates":[144.9705,-37.8166]},"geometry_name":"SHAPE","properties":{"OBJECTID":429,"STOP_ID":"18091","STOP_NAME":"6-Russell St/Flinders St (Melbourne City)","LATITUDE":-37.816564,"LONGITUDE":144.9705,"TICKETZONE":"1","ROUTES_USING_STOP":"70,75,35","SE_ANNO_CAD_DATA":null},"bbox":[144.9705,-37.8166,144.9705,-37.8166]},{"type":"Feature","id":"PTV_METRO_TRAM_STOP.fid-364680f9_183c55e9406_561a","geometry":{"type":"Point","coordinates":[144.9746,-37.8153]},"geometry_name":"SHAPE","properties":{"OBJECTID":430,"STOP_ID":"18092","STOP_NAME":"8-Spring St/Flinders St (Melbourne City)","LATITUDE":-37.815319,"LONGITUDE":144.974612,"TICKETZONE":"1","ROUTES_USING_STOP":"75,35","SE_ANNO_CAD_DATA":null},"bbox":[144.9746,-37.8153,144.9746,-37.8153]},{"type":"Feature","id":"PTV_METRO_TRAM_STOP.fid-364680f9_183c55e9406_561b","geometry":{"type":"Point","coordinates":[144.9772,-37.8155]},"geometry_name":"SHAPE","properties":{"OBJECTID":431,"STOP_ID":"18093","STOP_NAME":"9-Lansdowne St/Wellington Pde (East Melbourne)","LATITUDE":-37.815453,"LONGITUDE":144.977164,"TICKETZONE":"1","ROUTES_USING_STOP":"75,48","SE_ANNO_CAD_DATA":null},"bbox":[144.9772,-37.8155,144.9772,-37.8155]},{"type":"Feature","id":"PTV_METRO_TRAM_STOP.fid-364680f9_183c55e9406_561c","geometry":{"type":"Point","coordinates":[144.9798,-37.8157]},"geometry_name":"SHAPE","properties":{"OBJECTID":432,"STOP_ID":"18094","STOP_NAME":"10-Jolimont Rd/Wellington Pde (East Melbourne)","LATITUDE":-37.81575,"LONGITUDE":144.979791,"TICKETZONE":"1","ROUTES_USING_STOP":"75,48","SE_ANNO_CAD_DATA":null},"bbox":[144.9798,-37.8157,144.9798,-37.8157]},{"type":"Feature","id":"PTV_METRO_TRAM_STOP.fid-364680f9_183c55e9406_561d","geometry":{"type":"Point","coordinates":[144.9848,-37.8163]},"geometry_name":"SHAPE","properties":{"OBJECTID":433,"STOP_ID":"18095","STOP_NAME":"11-Jolimont Station-MCG/Wellington Pde (East Melbourne)","LATITUDE":-37.816341,"LONGITUDE":144.984819,"TICKETZONE":"1","ROUTES_USING_STOP":"75,48","SE_ANNO_CAD_DATA":null},"bbox":[144.9848,-37.8163,144.9848,-37.8163]},{"type":"Feature","id":"PTV_METRO_TRAM_STOP.fid-364680f9_183c55e9406_561e","geometry":{"type":"Point","coordinates":[144.987,-37.8165]},"geometry_name":"SHAPE","properties":{"OBJECTID":434,"STOP_ID":"18097","STOP_NAME":"13-Simpson St/Wellington Pde (East Melbourne)","LATITUDE":-37.81654,"LONGITUDE":144.986983,"TICKETZONE":"1","ROUTES_USING_STOP":"75,48","SE_ANNO_CAD_DATA":null},"bbox":[144.987,-37.8165,144.987,-37.8165]},{"type":"Feature","id":"PTV_METRO_TRAM_STOP.fid-364680f9_183c55e9406_561f","geometry":{"type":"Point","coordinates":[144.9897,-37.8174]},"geometry_name":"SHAPE","properties":{"OBJECTID":435,"STOP_ID":"18098","STOP_NAME":"14-Punt Rd/Wellington Pde (Melbourne City)","LATITUDE":-37.817388,"LONGITUDE":144.989675,"TICKETZONE":"1","ROUTES_USING_STOP":"75,48","SE_ANNO_CAD_DATA":null},"bbox":[144.9897,-37.8174,144.9897,-37.8174]},{"type":"Feature","id":"PTV_METRO_TRAM_STOP.fid-364680f9_183c55e9406_5620","geometry":{"type":"Point","coordinates":[144.9902,-37.8175]},"geometry_name":"SHAPE","properties":{"OBJECTID":436,"STOP_ID":"18099","STOP_NAME":"14-Punt Rd/Bridge Rd (Richmond)","LATITUDE":-37.817533,"LONGITUDE":144.990217,"TICKETZONE":"1","ROUTES_USING_STOP":"75,48","SE_ANNO_CAD_DATA":null},"bbox":[144.9902,-37.8175,144.9902,-37.8175]},{"type":"Feature","id":"PTV_METRO_TRAM_STOP.fid-364680f9_183c55e9406_5621","geometry":{"type":"Point","coordinates":[144.987,-37.8166]},"geometry_name":"SHAPE","properties":{"OBJECTID":437,"STOP_ID":"18100","STOP_NAME":"13-Simpson St/Wellington Pde (East Melbourne)","LATITUDE":-37.816603,"LONGITUDE":144.98697,"TICKETZONE":"1","ROUTES_USING_STOP":"75,48","SE_ANNO_CAD_DATA":null},"bbox":[144.987,-37.8166,144.987,-37.8166]},{"type":"Feature","id":"PTV_METRO_TRAM_STOP.fid-364680f9_183c55e9406_5622","geometry":{"type":"Point","coordinates":[144.984,-37.8162]},"geometry_name":"SHAPE","properties":{"OBJECTID":438,"STOP_ID":"18102","STOP_NAME":"11-Jolimont Station-MCG/Wellington Pde (East Melbourne)","LATITUDE":-37.816246,"LONGITUDE":144.983992,"TICKETZONE":"1","ROUTES_USING_STOP":"75,48","SE_ANNO_CAD_DATA":null},"bbox":[144.984,-37.8162,144.984,-37.8162]},{"type":"Feature","id":"PTV_METRO_TRAM_STOP.fid-364680f9_183c55e9406_5623","geometry":{"type":"Point","coordinates":[144.9793,-37.8158]},"geometry_name":"SHAPE","properties":{"OBJECTID":439,"STOP_ID":"18103","STOP_NAME":"10-Jolimont Rd/Wellington Pde (East Melbourne)","LATITUDE":-37.815769,"LONGITUDE":144.979325,"TICKETZONE":"1","ROUTES_USING_STOP":"75,48","SE_ANNO_CAD_DATA":null},"bbox":[144.9793,-37.8158,144.9793,-37.8158]},{"type":"Feature","id":"PTV_METRO_TRAM_STOP.fid-364680f9_183c55e9406_5624","geometry":{"type":"Point","coordinates":[144.9767,-37.8155]},"geometry_name":"SHAPE","properties":{"OBJECTID":440,"STOP_ID":"18104","STOP_NAME":"9-Lansdowne St/Wellington Pde (Melbourne City)","LATITUDE":-37.815471,"LONGITUDE":144.976664,"TICKETZONE":"1","ROUTES_USING_STOP":"75,48","SE_ANNO_CAD_DATA":null},"bbox":[144.9767,-37.8155,144.9767,-37.8155]},{"type":"Feature","id":"PTV_METRO_TRAM_STOP.fid-364680f9_183c55e9406_5625","geometry":{"type":"Point","coordinates":[144.9742,-37.8155]},"geometry_name":"SHAPE","properties":{"OBJECTID":441,"STOP_ID":"18105","STOP_NAME":"8-Spring St/Flinders St (Melbourne City)","LATITUDE":-37.815537,"LONGITUDE":144.974174,"TICKETZONE":"1","ROUTES_USING_STOP":"75,35","SE_ANNO_CAD_DATA":null},"bbox":[144.9742,-37.8155,144.9742,-37.8155]},{"type":"Feature","id":"PTV_METRO_TRAM_STOP.fid-364680f9_183c55e9406_5626","geometry":{"type":"Point","coordinates":[144.9791,-37.8196]},"geometry_name":"SHAPE","properties":{"OBJECTID":442,"STOP_ID":"18108","STOP_NAME":"7B-Rod Laver Arena/MCG Gates 1-3 (Melbourne City)","LATITUDE":-37.819587,"LONGITUDE":144.97913,"TICKETZONE":"1","ROUTES_USING_STOP":"70","SE_ANNO_CAD_DATA":null},"bbox":[144.9791,-37.8196,144.9791,-37.8196]},{"type":"Feature","id":"PTV_METRO_TRAM_STOP.fid-364680f9_183c55e9406_5627","geometry":{"type":"Point","coordinates":[144.9835,-37.8224]},"geometry_name":"SHAPE","properties":{"OBJECTID":443,"STOP_ID":"18116","STOP_NAME":"7C-MCG Gates 4-7/John Cain Arena (Melbourne City)","LATITUDE":-37.822384,"LONGITUDE":144.98353,"TICKETZONE":"1","ROUTES_USING_STOP":"70","SE_ANNO_CAD_DATA":null},"bbox":[144.9835,-37.8224,144.9835,-37.8224]},{"type":"Feature","id":"PTV_METRO_TRAM_STOP.fid-364680f9_183c55e9406_5628","geometry":{"type":"Point","coordinates":[144.9869,-37.8241]},"geometry_name":"SHAPE","properties":{"OBJECTID":444,"STOP_ID":"18118","STOP_NAME":"7D-Olympic Boulevard (Melbourne City)","LATITUDE":-37.824135,"LONGITUDE":144.986857,"TICKETZONE":"1","ROUTES_USING_STOP":"70","SE_ANNO_CAD_DATA":null},"bbox":[144.9869,-37.8241,144.9869,-37.8241]},{"type":"Feature","id":"PTV_METRO_TRAM_STOP.fid-364680f9_183c55e9406_5629","geometry":{"type":"Point","coordinates":[144.9868,-37.8238]},"geometry_name":"SHAPE","properties":{"OBJECTID":445,"STOP_ID":"18155","STOP_NAME":"7D-Olympic Boulevard (Melbourne City)","LATITUDE":-37.823827,"LONGITUDE":144.986751,"TICKETZONE":"1","ROUTES_USING_STOP":"70","SE_ANNO_CAD_DATA":null},"bbox":[144.9868,-37.8238,144.9868,-37.8238]},{"type":"Feature","id":"PTV_METRO_TRAM_STOP.fid-364680f9_183c55e9406_562a","geometry":{"type":"Point","coordinates":[144.9828,-37.8221]},"geometry_name":"SHAPE","properties":{"OBJECTID":446,"STOP_ID":"18161","STOP_NAME":"7C-MCG Gates 4-7/John Cain Arena (Melbourne City)","LATITUDE":-37.822137,"LONGITUDE":144.982798,"TICKETZONE":"1","ROUTES_USING_STOP":"70","SE_ANNO_CAD_DATA":null},"bbox":[144.9828,-37.8221,144.9828,-37.8221]},{"type":"Feature","id":"PTV_METRO_TRAM_STOP.fid-364680f9_183c55e9406_562b","geometry":{"type":"Point","coordinates":[144.9784,-37.8193]},"geometry_name":"SHAPE","properties":{"OBJECTID":447,"STOP_ID":"18172","STOP_NAME":"7B-Rod Laver Arena/MCG Gates 1-3 (Melbourne City)","LATITUDE":-37.819349,"LONGITUDE":144.978421,"TICKETZONE":"1","ROUTES_USING_STOP":"70","SE_ANNO_CAD_DATA":null},"bbox":[144.9784,-37.8193,144.9784,-37.8193]},{"type":"Feature","id":"PTV_METRO_TRAM_STOP.fid-364680f9_183c55e9406_562c","geometry":{"type":"Point","coordinates":[144.9702,-37.8167]},"geometry_name":"SHAPE","properties":{"OBJECTID":448,"STOP_ID":"18174","STOP_NAME":"6-Russell St/Flinders St (Melbourne City)","LATITUDE":-37.816657,"LONGITUDE":144.970168,"TICKETZONE":"1","ROUTES_USING_STOP":"70,75,35","SE_ANNO_CAD_DATA":null},"bbox":[144.9702,-37.8167,144.9702,-37.8167]},{"type":"Feature","id":"PTV_METRO_TRAM_STOP.fid-364680f9_183c55e9406_562d","geometry":{"type":"Point","coordinates":[144.9665,-37.8178]},"geometry_name":"SHAPE","properties":{"OBJECTID":449,"STOP_ID":"18175","STOP_NAME":"5-Swanston St/Flinders St (Melbourne City)","LATITUDE":-37.817756,"LONGITUDE":144.966491,"TICKETZONE":"1","ROUTES_USING_STOP":"70,75,35","SE_ANNO_CAD_DATA":null},"bbox":[144.9665,-37.8178,144.9665,-37.8178]},{"type":"Feature","id":"PTV_METRO_TRAM_STOP.fid-364680f9_183c55e9406_562e","geometry":{"type":"Point","coordinates":[144.9643,-37.8184]},"geometry_name":"SHAPE","properties":{"OBJECTID":450,"STOP_ID":"18176","STOP_NAME":"4-Elizabeth St/Flinders St (Melbourne City)","LATITUDE":-37.818412,"LONGITUDE":144.96428,"TICKETZONE":"1","ROUTES_USING_STOP":"70,75,35","SE_ANNO_CAD_DATA":null},"bbox":[144.9643,-37.8184,144.9643,-37.8184]},{"type":"Feature","id":"PTV_METRO_TRAM_STOP.fid-364680f9_183c55e9406_562f","geometry":{"type":"Point","coordinates":[144.9613,-37.8193]},"geometry_name":"SHAPE","properties":{"OBJECTID":451,"STOP_ID":"18178","STOP_NAME":"3-Market St/Flinders St (Melbourne City)","LATITUDE":-37.819306,"LONGITUDE":144.961279,"TICKETZONE":"1","ROUTES_USING_STOP":"70,75,35","SE_ANNO_CAD_DATA":null},"bbox":[144.9613,-37.8193,144.9613,-37.8193]},{"type":"Feature","id":"PTV_METRO_TRAM_STOP.fid-364680f9_183c55e9406_5630","geometry":{"type":"Point","coordinates":[144.9532,-37.8217]},"geometry_name":"SHAPE","properties":{"OBJECTID":452,"STOP_ID":"18179","STOP_NAME":"D6-Victoria Police Centre/Flinders St (Southbank)","LATITUDE":-37.821726,"LONGITUDE":144.953215,"TICKETZONE":"1","ROUTES_USING_STOP":"70,75,35","SE_ANNO_CAD_DATA":null},"bbox":[144.9532,-37.8217,144.9532,-37.8217]},{"type":"Feature","id":"PTV_METRO_TRAM_STOP.fid-364680f9_183c55e9406_5631","geometry":{"type":"Point","coordinates":[144.9509,-37.822]},"geometry_name":"SHAPE","properties":{"OBJECTID":453,"STOP_ID":"18180","STOP_NAME":"D5-South Wharf/Wurundjeri Way (Docklands)","LATITUDE":-37.822001,"LONGITUDE":144.950913,"TICKETZONE":"1","ROUTES_USING_STOP":"70,75,35","SE_ANNO_CAD_DATA":null},"bbox":[144.9509,-37.822,144.9509,-37.822]},{"type":"Feature","id":"PTV_METRO_TRAM_STOP.fid-364680f9_183c55e9406_5632","geometry":{"type":"Point","coordinates":[144.9475,-37.8217]},"geometry_name":"SHAPE","properties":{"OBJECTID":454,"STOP_ID":"18181","STOP_NAME":"D4-Docklands Park/Harbour Esp (Docklands)","LATITUDE":-37.821725,"LONGITUDE":144.947501,"TICKETZONE":"1","ROUTES_USING_STOP":"70,75,35","SE_ANNO_CAD_DATA":null},"bbox":[144.9475,-37.8217,144.9475,-37.8217]},{"type":"Feature","id":"PTV_METRO_TRAM_STOP.fid-364680f9_183c55e9406_5633","geometry":{"type":"Point","coordinates":[144.946,-37.8175]},"geometry_name":"SHAPE","properties":{"OBJECTID":455,"STOP_ID":"18182","STOP_NAME":"D3-Stadium Precinct/Harbour Esp (Docklands)","LATITUDE":-37.817463,"LONGITUDE":144.94596,"TICKETZONE":"1","ROUTES_USING_STOP":"70,75,35","SE_ANNO_CAD_DATA":null},"bbox":[144.946,-37.8175,144.946,-37.8175]},{"type":"Feature","id":"PTV_METRO_TRAM_STOP.fid-364680f9_183c55e9406_5634","geometry":{"type":"Point","coordinates":[144.9446,-37.8142]},"geometry_name":"SHAPE","properties":{"OBJECTID":456,"STOP_ID":"18183","STOP_NAME":"D2-CentralPier/Harbour Esp (Docklands)","LATITUDE":-37.814249,"LONGITUDE":144.944584,"TICKETZONE":"1","ROUTES_USING_STOP":"35,70,75,86,30","SE_ANNO_CAD_DATA":null},"bbox":[144.9446,-37.8142,144.9446,-37.8142]},{"type":"Feature","id":"PTV_METRO_TRAM_STOP.fid-364680f9_183c55e9406_5635","geometry":{"type":"Point","coordinates":[144.9567,-37.8257]},"geometry_name":"SHAPE","properties":{"OBJECTID":457,"STOP_ID":"18184","STOP_NAME":"125-Clarendon St/Whiteman St (Southbank)","LATITUDE":-37.825688,"LONGITUDE":144.956684,"TICKETZONE":"1","ROUTES_USING_STOP":"12,96,109","SE_ANNO_CAD_DATA":null},"bbox":[144.9567,-37.8257,144.9567,-37.8257]},{"type":"Feature","id":"PTV_METRO_TRAM_STOP.fid-364680f9_183c55e9406_5636","geometry":{"type":"Point","coordinates":[144.9561,-37.8233]},"geometry_name":"SHAPE","properties":{"OBJECTID":458,"STOP_ID":"18185","STOP_NAME":"124A-Casino/MCEC/Clarendon St (Southbank)","LATITUDE":-37.823289,"LONGITUDE":144.956057,"TICKETZONE":"1","ROUTES_USING_STOP":"12,96,109","SE_ANNO_CAD_DATA":null},"bbox":[144.9561,-37.8233,144.9561,-37.8233]},{"type":"Feature","id":"PTV_METRO_TRAM_STOP.fid-364680f9_183c55e9406_5637","geometry":{"type":"Point","coordinates":[144.9553,-37.8216]},"geometry_name":"SHAPE","properties":{"OBJECTID":459,"STOP_ID":"18186","STOP_NAME":"124-Batman Park/Spencer St (Melbourne City)","LATITUDE":-37.821554,"LONGITUDE":144.955265,"TICKETZONE":"1","ROUTES_USING_STOP":"12,96,109","SE_ANNO_CAD_DATA":null},"bbox":[144.9553,-37.8216,144.9553,-37.8216]},{"type":"Feature","id":"PTV_METRO_TRAM_STOP.fid-364680f9_183c55e9406_5638","geometry":{"type":"Point","coordinates":[144.9541,-37.8188]},"geometry_name":"SHAPE","properties":{"OBJECTID":460,"STOP_ID":"18187","STOP_NAME":"122-Southern Cross Railway Station/Spencer St (Melbourne City)","LATITUDE":-37.818767,"LONGITUDE":144.954092,"TICKETZONE":"1","ROUTES_USING_STOP":"96","SE_ANNO_CAD_DATA":null},"bbox":[144.9541,-37.8188,144.9541,-37.8188]},{"type":"Feature","id":"PTV_METRO_TRAM_STOP.fid-364680f9_183c55e9406_5639","geometry":{"type":"Point","coordinates":[144.9524,-37.8153]},"geometry_name":"SHAPE","properties":{"OBJECTID":461,"STOP_ID":"18189","STOP_NAME":"120-Lonsdale St/Spencer St (Melbourne City)","LATITUDE":-37.815313,"LONGITUDE":144.952381,"TICKETZONE":"1","ROUTES_USING_STOP":"86","SE_ANNO_CAD_DATA":null},"bbox":[144.9524,-37.8153,144.9524,-37.8153]},{"type":"Feature","id":"PTV_METRO_TRAM_STOP.fid-364680f9_183c55e9406_563a","geometry":{"type":"Point","coordinates":[144.9515,-37.8134]},"geometry_name":"SHAPE","properties":{"OBJECTID":462,"STOP_ID":"18190","STOP_NAME":"119-La Trobe St/Spencer St (Melbourne City)","LATITUDE":-37.813405,"LONGITUDE":144.951502,"TICKETZONE":"1","ROUTES_USING_STOP":"86","SE_ANNO_CAD_DATA":null},"bbox":[144.9515,-37.8134,144.9515,-37.8134]},{"type":"Feature","id":"PTV_METRO_TRAM_STOP.fid-364680f9_183c55e9406_563b","geometry":{"type":"Point","coordinates":[144.9523,-37.815]},"geometry_name":"SHAPE","properties":{"OBJECTID":463,"STOP_ID":"18192","STOP_NAME":"120-Lonsdale St/Spencer St (Melbourne City)","LATITUDE":-37.81496,"LONGITUDE":144.952311,"TICKETZONE":"1","ROUTES_USING_STOP":"86","SE_ANNO_CAD_DATA":null},"bbox":[144.9523,-37.815,144.9523,-37.815]},{"type":"Feature","id":"PTV_METRO_TRAM_STOP.fid-364680f9_183c55e9406_563c","geometry":{"type":"Point","coordinates":[144.9537,-37.8183]},"geometry_name":"SHAPE","properties":{"OBJECTID":464,"STOP_ID":"18194","STOP_NAME":"122-Southern Cross Railway Station/Spencer St (Melbourne City)","LATITUDE":-37.818319,"LONGITUDE":144.953718,"TICKETZONE":"1","ROUTES_USING_STOP":"96","SE_ANNO_CAD_DATA":null},"bbox":[144.9537,-37.8183,144.9537,-37.8183]},{"type":"Feature","id":"PTV_METRO_TRAM_STOP.fid-364680f9_183c55e9406_563d","geometry":{"type":"Point","coordinates":[144.9554,-37.8218]},"geometry_name":"SHAPE","properties":{"OBJECTID":465,"STOP_ID":"18196","STOP_NAME":"124-Batman Park/Spencer St (Melbourne City)","LATITUDE":-37.821773,"LONGITUDE":144.955406,"TICKETZONE":"1","ROUTES_USING_STOP":"12,96,109","SE_ANNO_CAD_DATA":null},"bbox":[144.9554,-37.8218,144.9554,-37.8218]},{"type":"Feature","id":"PTV_METRO_TRAM_STOP.fid-364680f9_183c55e9406_563e","geometry":{"type":"Point","coordinates":[144.9563,-37.8236]},"geometry_name":"SHAPE","properties":{"OBJECTID":466,"STOP_ID":"18197","STOP_NAME":"124A-Casino/MCEC/Clarendon St (Southbank)","LATITUDE":-37.823591,"LONGITUDE":144.95631,"TICKETZONE":"1","ROUTES_USING_STOP":"12,96,109","SE_ANNO_CAD_DATA":null},"bbox":[144.9563,-37.8236,144.9563,-37.8236]},{"type":"Feature","id":"PTV_METRO_TRAM_STOP.fid-364680f9_183c55e9406_563f","geometry":{"type":"Point","coordinates":[144.9583,-37.8159]},"geometry_name":"SHAPE","properties":{"OBJECTID":467,"STOP_ID":"18199","STOP_NAME":"5-Bourke St/William St (Melbourne City)","LATITUDE":-37.815874,"LONGITUDE":144.95825,"TICKETZONE":"1","ROUTES_USING_STOP":"58","SE_ANNO_CAD_DATA":null},"bbox":[144.9583,-37.8159,144.9583,-37.8159]},{"type":"Feature","id":"PTV_METRO_TRAM_STOP.fid-364680f9_183c55e9406_5640","geometry":{"type":"Point","coordinates":[145.032,-37.8418]},"geometry_name":"SHAPE","properties":{"OBJECTID":468,"STOP_ID":"20549","STOP_NAME":"64-Power St/Glenferrie Rd (Kooyong)","LATITUDE":-37.84184,"LONGITUDE":145.031967,"TICKETZONE":"1","ROUTES_USING_STOP":"16","SE_ANNO_CAD_DATA":null},"bbox":[145.032,-37.8418,145.032,-37.8418]},{"type":"Feature","id":"PTV_METRO_TRAM_STOP.fid-364680f9_183c55e9406_5641","geometry":{"type":"Point","coordinates":[145.0321,-37.84]},"geometry_name":"SHAPE","properties":{"OBJECTID":469,"STOP_ID":"20550","STOP_NAME":"65-Warra St/Glenferrie Rd (Toorak)","LATITUDE":-37.840041,"LONGITUDE":145.03214,"TICKETZONE":"1","ROUTES_USING_STOP":"16","SE_ANNO_CAD_DATA":null},"bbox":[145.0321,-37.84,145.0321,-37.84]},{"type":"Feature","id":"PTV_METRO_TRAM_STOP.fid-364680f9_183c55e9406_5642","geometry":{"type":"Point","coordinates":[145.0324,-37.8393]},"geometry_name":"SHAPE","properties":{"OBJECTID":470,"STOP_ID":"20551","STOP_NAME":"65-Kooyong Railway Station/Glenferrie Rd (Kooyong)","LATITUDE":-37.839333,"LONGITUDE":145.032431,"TICKETZONE":"1","ROUTES_USING_STOP":"16","SE_ANNO_CAD_DATA":null},"bbox":[145.0324,-37.8393,145.0324,-37.8393]},{"type":"Feature","id":"PTV_METRO_TRAM_STOP.fid-364680f9_183c55e9406_5643","geometry":{"type":"Point","coordinates":[145.0324,-37.8385]},"geometry_name":"SHAPE","properties":{"OBJECTID":471,"STOP_ID":"20552","STOP_NAME":"66-Kooyong Tennis Centre/Glenferrie Rd (Toorak)","LATITUDE":-37.838494,"LONGITUDE":145.032351,"TICKETZONE":"1","ROUTES_USING_STOP":"16","SE_ANNO_CAD_DATA":null},"bbox":[145.0324,-37.8385,145.0324,-37.8385]},{"type":"Feature","id":"PTV_METRO_TRAM_STOP.fid-364680f9_183c55e9406_5644","geometry":{"type":"Point","coordinates":[145.0326,-37.8383]},"geometry_name":"SHAPE","properties":{"OBJECTID":472,"STOP_ID":"20553","STOP_NAME":"66-Vision Australia/Glenferrie Rd (Kooyong)","LATITUDE":-37.838336,"LONGITUDE":145.032617,"TICKETZONE":"1","ROUTES_USING_STOP":"16","SE_ANNO_CAD_DATA":null},"bbox":[145.0326,-37.8383,145.0326,-37.8383]},{"type":"Feature","id":"PTV_METRO_TRAM_STOP.fid-364680f9_183c55e9406_5645","geometry":{"type":"Point","coordinates":[145.0329,-37.8356]},"geometry_name":"SHAPE","properties":{"OBJECTID":473,"STOP_ID":"20554","STOP_NAME":"67-Gardiner Rd/Glenferrie Rd (Hawthorn)","LATITUDE":-37.835557,"LONGITUDE":145.03294,"TICKETZONE":"1","ROUTES_USING_STOP":"16","SE_ANNO_CAD_DATA":null},"bbox":[145.0329,-37.8356,145.0329,-37.8356]},{"type":"Feature","id":"PTV_METRO_TRAM_STOP.fid-364680f9_183c55e9406_5646","geometry":{"type":"Point","coordinates":[145.0331,-37.8355]},"geometry_name":"SHAPE","properties":{"OBJECTID":474,"STOP_ID":"20555","STOP_NAME":"67-Gardiner Rd/Glenferrie Rd (Hawthorn)","LATITUDE":-37.835451,"LONGITUDE":145.033091,"TICKETZONE":"1","ROUTES_USING_STOP":"16","SE_ANNO_CAD_DATA":null},"bbox":[145.0331,-37.8355,145.0331,-37.8355]},{"type":"Feature","id":"PTV_METRO_TRAM_STOP.fid-364680f9_183c55e9406_5647","geometry":{"type":"Point","coordinates":[145.0333,-37.8334]},"geometry_name":"SHAPE","properties":{"OBJECTID":475,"STOP_ID":"20556","STOP_NAME":"68-Callantina Rd/Glenferrie Rd (Hawthorn)","LATITUDE":-37.833427,"LONGITUDE":145.033304,"TICKETZONE":"1","ROUTES_USING_STOP":"16","SE_ANNO_CAD_DATA":null},"bbox":[145.0333,-37.8334,145.0333,-37.8334]},{"type":"Feature","id":"PTV_METRO_TRAM_STOP.fid-364680f9_183c55e9406_5648","geometry":{"type":"Point","coordinates":[144.9565,-37.812]},"geometry_name":"SHAPE","properties":{"OBJECTID":476,"STOP_ID":"18201","STOP_NAME":"7-Flagstaff Railway Station/William St (Melbourne City)","LATITUDE":-37.811996,"LONGITUDE":144.956517,"TICKETZONE":"1","ROUTES_USING_STOP":"58","SE_ANNO_CAD_DATA":null},"bbox":[144.9565,-37.812,144.9565,-37.812]},{"type":"Feature","id":"PTV_METRO_TRAM_STOP.fid-364680f9_183c55e9406_5649","geometry":{"type":"Point","coordinates":[144.9555,-37.8097]},"geometry_name":"SHAPE","properties":{"OBJECTID":477,"STOP_ID":"18202","STOP_NAME":"8-Franklin St/William St (Melbourne City)","LATITUDE":-37.809743,"LONGITUDE":144.955454,"TICKETZONE":"1","ROUTES_USING_STOP":"58","SE_ANNO_CAD_DATA":null},"bbox":[144.9555,-37.8097,144.9555,-37.8097]},{"type":"Feature","id":"PTV_METRO_TRAM_STOP.fid-364680f9_183c55e9406_564a","geometry":{"type":"Point","coordinates":[144.956,-37.8054]},"geometry_name":"SHAPE","properties":{"OBJECTID":478,"STOP_ID":"18203","STOP_NAME":"10-Victoria St/Peel St (West Melbourne)","LATITUDE":-37.805391,"LONGITUDE":144.956029,"TICKETZONE":"1","ROUTES_USING_STOP":"58","SE_ANNO_CAD_DATA":null},"bbox":[144.956,-37.8054,144.956,-37.8054]},{"type":"Feature","id":"PTV_METRO_TRAM_STOP.fid-364680f9_183c55e9406_564b","geometry":{"type":"Point","coordinates":[144.9561,-37.8057]},"geometry_name":"SHAPE","properties":{"OBJECTID":479,"STOP_ID":"18204","STOP_NAME":"10-Victoria St/Peel St (West Melbourne)","LATITUDE":-37.805698,"LONGITUDE":144.956077,"TICKETZONE":"1","ROUTES_USING_STOP":"58","SE_ANNO_CAD_DATA":null},"bbox":[144.9561,-37.8057,144.9561,-37.8057]},{"type":"Feature","id":"PTV_METRO_TRAM_STOP.fid-364680f9_183c55e9406_564c","geometry":{"type":"Point","coordinates":[144.9558,-37.8074]},"geometry_name":"SHAPE","properties":{"OBJECTID":480,"STOP_ID":"18205","STOP_NAME":"9-Queen Victoria Market/Peel St (North Melbourne)","LATITUDE":-37.807442,"LONGITUDE":144.955779,"TICKETZONE":"1","ROUTES_USING_STOP":"58","SE_ANNO_CAD_DATA":null},"bbox":[144.9558,-37.8074,144.9558,-37.8074]},{"type":"Feature","id":"PTV_METRO_TRAM_STOP.fid-364680f9_183c55e9406_564d","geometry":{"type":"Point","coordinates":[144.9558,-37.8072]},"geometry_name":"SHAPE","properties":{"OBJECTID":481,"STOP_ID":"18206","STOP_NAME":"9-Queen Victoria Market/39 Peel St (North Melbourne)","LATITUDE":-37.807216,"LONGITUDE":144.955751,"TICKETZONE":"1","ROUTES_USING_STOP":"58","SE_ANNO_CAD_DATA":null},"bbox":[144.9558,-37.8072,144.9558,-37.8072]},{"type":"Feature","id":"PTV_METRO_TRAM_STOP.fid-364680f9_183c55e9406_564e","geometry":{"type":"Point","coordinates":[144.9555,-37.8094]},"geometry_name":"SHAPE","properties":{"OBJECTID":482,"STOP_ID":"18207","STOP_NAME":"8-Franklin St/Peel St (Melbourne City)","LATITUDE":-37.809428,"LONGITUDE":144.955474,"TICKETZONE":"1","ROUTES_USING_STOP":"58","SE_ANNO_CAD_DATA":null},"bbox":[144.9555,-37.8094,144.9555,-37.8094]},{"type":"Feature","id":"PTV_METRO_TRAM_STOP.fid-364680f9_183c55e9406_564f","geometry":{"type":"Point","coordinates":[144.9568,-37.8125]},"geometry_name":"SHAPE","properties":{"OBJECTID":483,"STOP_ID":"18208","STOP_NAME":"7-Flagstaff Railway Station/William St (Melbourne City)","LATITUDE":-37.812461,"LONGITUDE":144.956799,"TICKETZONE":"1","ROUTES_USING_STOP":"58","SE_ANNO_CAD_DATA":null},"bbox":[144.9568,-37.8125,144.9568,-37.8125]},{"type":"Feature","id":"PTV_METRO_TRAM_STOP.fid-364680f9_183c55e9406_5650","geometry":{"type":"Point","coordinates":[144.9582,-37.8154]},"geometry_name":"SHAPE","properties":{"OBJECTID":484,"STOP_ID":"18210","STOP_NAME":"5-Bourke St/William St (Melbourne City)","LATITUDE":-37.81544,"LONGITUDE":144.95816,"TICKETZONE":"1","ROUTES_USING_STOP":"58","SE_ANNO_CAD_DATA":null},"bbox":[144.9582,-37.8154,144.9582,-37.8154]},{"type":"Feature","id":"PTV_METRO_TRAM_STOP.fid-364680f9_183c55e9406_5651","geometry":{"type":"Point","coordinates":[144.9591,-37.8175]},"geometry_name":"SHAPE","properties":{"OBJECTID":485,"STOP_ID":"18211","STOP_NAME":"4-Collins St/William St (Melbourne City)","LATITUDE":-37.817457,"LONGITUDE":144.959092,"TICKETZONE":"1","ROUTES_USING_STOP":"58","SE_ANNO_CAD_DATA":null},"bbox":[144.9591,-37.8175,144.9591,-37.8175]},{"type":"Feature","id":"PTV_METRO_TRAM_STOP.fid-364680f9_183c55e9406_5652","geometry":{"type":"Point","coordinates":[144.9612,-37.8195]},"geometry_name":"SHAPE","properties":{"OBJECTID":486,"STOP_ID":"18214","STOP_NAME":"1-Flinders St/Queens Bridge St (Melbourne City)","LATITUDE":-37.819513,"LONGITUDE":144.96124,"TICKETZONE":"1","ROUTES_USING_STOP":"58","SE_ANNO_CAD_DATA":null},"bbox":[144.9612,-37.8195,144.9612,-37.8195]},{"type":"Feature","id":"PTV_METRO_TRAM_STOP.fid-364680f9_183c55e9406_5653","geometry":{"type":"Point","coordinates":[144.9612,-37.8221]},"geometry_name":"SHAPE","properties":{"OBJECTID":487,"STOP_ID":"18215","STOP_NAME":"115-Casino/Southbank/Queens Bridge St (Southbank)","LATITUDE":-37.822117,"LONGITUDE":144.961225,"TICKETZONE":"1","ROUTES_USING_STOP":"58","SE_ANNO_CAD_DATA":null},"bbox":[144.9612,-37.8221,144.9612,-37.8221]},{"type":"Feature","id":"PTV_METRO_TRAM_STOP.fid-364680f9_183c55e9406_5654","geometry":{"type":"Point","coordinates":[144.9641,-37.8296]},"geometry_name":"SHAPE","properties":{"OBJECTID":488,"STOP_ID":"18217","STOP_NAME":"117-York St/Kings Way (South Melbourne)","LATITUDE":-37.82961,"LONGITUDE":144.964075,"TICKETZONE":"1","ROUTES_USING_STOP":"58","SE_ANNO_CAD_DATA":null},"bbox":[144.9641,-37.8296,144.9641,-37.8296]},{"type":"Feature","id":"PTV_METRO_TRAM_STOP.fid-364680f9_183c55e9406_5655","geometry":{"type":"Point","coordinates":[144.965,-37.8305]},"geometry_name":"SHAPE","properties":{"OBJECTID":489,"STOP_ID":"18218","STOP_NAME":"118-Sturt St/Kings Way (Southbank)","LATITUDE":-37.830536,"LONGITUDE":144.965004,"TICKETZONE":"1","ROUTES_USING_STOP":"58","SE_ANNO_CAD_DATA":null},"bbox":[144.965,-37.8305,144.965,-37.8305]},{"type":"Feature","id":"PTV_METRO_TRAM_STOP.fid-364680f9_183c55e9406_5656","geometry":{"type":"Point","coordinates":[144.9698,-37.8328]},"geometry_name":"SHAPE","properties":{"OBJECTID":490,"STOP_ID":"18219","STOP_NAME":"119-Wells St/Park St (South Melbourne)","LATITUDE":-37.8328,"LONGITUDE":144.969816,"TICKETZONE":"1","ROUTES_USING_STOP":"58","SE_ANNO_CAD_DATA":null},"bbox":[144.9698,-37.8328,144.9698,-37.8328]},{"type":"Feature","id":"PTV_METRO_TRAM_STOP.fid-364680f9_183c55e9406_5657","geometry":{"type":"Point","coordinates":[144.9698,-37.8329]},"geometry_name":"SHAPE","properties":{"OBJECTID":491,"STOP_ID":"18221","STOP_NAME":"119-Wells St/Park St (South Melbourne)","LATITUDE":-37.83289,"LONGITUDE":144.969802,"TICKETZONE":"1","ROUTES_USING_STOP":"58","SE_ANNO_CAD_DATA":null},"bbox":[144.9698,-37.8329,144.9698,-37.8329]},{"type":"Feature","id":"PTV_METRO_TRAM_STOP.fid-364680f9_183c55e9406_5658","geometry":{"type":"Point","coordinates":[144.9654,-37.8311]},"geometry_name":"SHAPE","properties":{"OBJECTID":492,"STOP_ID":"18222","STOP_NAME":"118-Sturt St/Kings Way (Southbank)","LATITUDE":-37.831074,"LONGITUDE":144.965375,"TICKETZONE":"1","ROUTES_USING_STOP":"58","SE_ANNO_CAD_DATA":null},"bbox":[144.9654,-37.8311,144.9654,-37.8311]},{"type":"Feature","id":"PTV_METRO_TRAM_STOP.fid-364680f9_183c55e9406_5659","geometry":{"type":"Point","coordinates":[144.9639,-37.8296]},"geometry_name":"SHAPE","properties":{"OBJECTID":493,"STOP_ID":"18223","STOP_NAME":"117-York St/Kings Way (South Melbourne)","LATITUDE":-37.829571,"LONGITUDE":144.963906,"TICKETZONE":"1","ROUTES_USING_STOP":"58","SE_ANNO_CAD_DATA":null},"bbox":[144.9639,-37.8296,144.9639,-37.8296]},{"type":"Feature","id":"PTV_METRO_TRAM_STOP.fid-364680f9_183c55e9406_565a","geometry":{"type":"Point","coordinates":[144.9653,-37.8301]},"geometry_name":"SHAPE","properties":{"OBJECTID":494,"STOP_ID":"18224","STOP_NAME":"20-Kings Way/Sturt St (Southbank)","LATITUDE":-37.830091,"LONGITUDE":144.965334,"TICKETZONE":"1","ROUTES_USING_STOP":"1","SE_ANNO_CAD_DATA":null},"bbox":[144.9653,-37.8301,144.9653,-37.8301]},{"type":"Feature","id":"PTV_METRO_TRAM_STOP.fid-364680f9_183c55e9406_565b","geometry":{"type":"Point","coordinates":[144.9658,-37.8284]},"geometry_name":"SHAPE","properties":{"OBJECTID":495,"STOP_ID":"18225","STOP_NAME":"19-Miles St/Sturt St (Southbank)","LATITUDE":-37.828431,"LONGITUDE":144.965755,"TICKETZONE":"1","ROUTES_USING_STOP":"1","SE_ANNO_CAD_DATA":null},"bbox":[144.9658,-37.8284,144.9658,-37.8284]},{"type":"Feature","id":"PTV_METRO_TRAM_STOP.fid-364680f9_183c55e9406_565c","geometry":{"type":"Point","coordinates":[144.9666,-37.8258]},"geometry_name":"SHAPE","properties":{"OBJECTID":496,"STOP_ID":"18226","STOP_NAME":"18-Grant St/Sturt St (Southbank)","LATITUDE":-37.825779,"LONGITUDE":144.966634,"TICKETZONE":"1","ROUTES_USING_STOP":"1","SE_ANNO_CAD_DATA":null},"bbox":[144.9666,-37.8258,144.9666,-37.8258]},{"type":"Feature","id":"PTV_METRO_TRAM_STOP.fid-364680f9_183c55e9406_565d","geometry":{"type":"Point","coordinates":[144.9673,-37.8238]},"geometry_name":"SHAPE","properties":{"OBJECTID":497,"STOP_ID":"18227","STOP_NAME":"17-Arts Precinct/Sturt St (Southbank)","LATITUDE":-37.823816,"LONGITUDE":144.967256,"TICKETZONE":"1","ROUTES_USING_STOP":"1","SE_ANNO_CAD_DATA":null},"bbox":[144.9673,-37.8238,144.9673,-37.8238]},{"type":"Feature","id":"PTV_METRO_TRAM_STOP.fid-364680f9_183c55e9406_565e","geometry":{"type":"Point","coordinates":[144.9672,-37.8241]},"geometry_name":"SHAPE","properties":{"OBJECTID":498,"STOP_ID":"18229","STOP_NAME":"17-Arts Precinct/Sturt St (Southbank)","LATITUDE":-37.824094,"LONGITUDE":144.96718,"TICKETZONE":"1","ROUTES_USING_STOP":"1","SE_ANNO_CAD_DATA":null},"bbox":[144.9672,-37.8241,144.9672,-37.8241]},{"type":"Feature","id":"PTV_METRO_TRAM_STOP.fid-364680f9_183c55e9406_565f","geometry":{"type":"Point","coordinates":[144.9667,-37.8259]},"geometry_name":"SHAPE","properties":{"OBJECTID":499,"STOP_ID":"18230","STOP_NAME":"18-Grant St/Sturt St (Southbank)","LATITUDE":-37.825924,"LONGITUDE":144.966664,"TICKETZONE":"1","ROUTES_USING_STOP":"1","SE_ANNO_CAD_DATA":null},"bbox":[144.9667,-37.8259,144.9667,-37.8259]},{"type":"Feature","id":"PTV_METRO_TRAM_STOP.fid-364680f9_183c55e9406_5660","geometry":{"type":"Point","coordinates":[144.9661,-37.8282]},"geometry_name":"SHAPE","properties":{"OBJECTID":500,"STOP_ID":"18231","STOP_NAME":"19-Miles St/Sturt St (Southbank)","LATITUDE":-37.828184,"LONGITUDE":144.966057,"TICKETZONE":"1","ROUTES_USING_STOP":"1","SE_ANNO_CAD_DATA":null},"bbox":[144.9661,-37.8282,144.9661,-37.8282]},{"type":"Feature","id":"PTV_METRO_TRAM_STOP.fid-364680f9_183c55e9406_5661","geometry":{"type":"Point","coordinates":[144.9654,-37.8301]},"geometry_name":"SHAPE","properties":{"OBJECTID":501,"STOP_ID":"18232","STOP_NAME":"20-Kings Way/Sturt St (Southbank)","LATITUDE":-37.830119,"LONGITUDE":144.96539,"TICKETZONE":"1","ROUTES_USING_STOP":"1","SE_ANNO_CAD_DATA":null},"bbox":[144.9654,-37.8301,144.9654,-37.8301]},{"type":"Feature","id":"PTV_METRO_TRAM_STOP.fid-364680f9_183c55e9406_5662","geometry":{"type":"Point","coordinates":[144.9606,-37.8263]},"geometry_name":"SHAPE","properties":{"OBJECTID":502,"STOP_ID":"18233","STOP_NAME":"116-City Rd/Kings Way (Southbank)","LATITUDE":-37.82626,"LONGITUDE":144.960577,"TICKETZONE":"1","ROUTES_USING_STOP":"58","SE_ANNO_CAD_DATA":null},"bbox":[144.9606,-37.8263,144.9606,-37.8263]},{"type":"Feature","id":"PTV_METRO_TRAM_STOP.fid-364680f9_183c55e9406_5663","geometry":{"type":"Point","coordinates":[145.0186,-37.8179]},"geometry_name":"SHAPE","properties":{"OBJECTID":503,"STOP_ID":"18341","STOP_NAME":"24-Grattan St/Church St (Hawthorn)","LATITUDE":-37.817906,"LONGITUDE":145.018607,"TICKETZONE":"1","ROUTES_USING_STOP":"48","SE_ANNO_CAD_DATA":null},"bbox":[145.0186,-37.8179,145.0186,-37.8179]},{"type":"Feature","id":"PTV_METRO_TRAM_STOP.fid-364680f9_183c55e9406_5664","geometry":{"type":"Point","coordinates":[145.0206,-37.8159]},"geometry_name":"SHAPE","properties":{"OBJECTID":504,"STOP_ID":"18342","STOP_NAME":"25-Brook St/Church St (Hawthorn)","LATITUDE":-37.815921,"LONGITUDE":145.020602,"TICKETZONE":"1","ROUTES_USING_STOP":"48","SE_ANNO_CAD_DATA":null},"bbox":[145.0206,-37.8159,145.0206,-37.8159]},{"type":"Feature","id":"PTV_METRO_TRAM_STOP.fid-364680f9_183c55e9406_5665","geometry":{"type":"Point","coordinates":[145.0233,-37.8133]},"geometry_name":"SHAPE","properties":{"OBJECTID":505,"STOP_ID":"18343","STOP_NAME":"26-Barkers Rd/Church St (Hawthorn)","LATITUDE":-37.813253,"LONGITUDE":145.023252,"TICKETZONE":"1","ROUTES_USING_STOP":"48","SE_ANNO_CAD_DATA":null},"bbox":[145.0233,-37.8133,145.0233,-37.8133]},{"type":"Feature","id":"PTV_METRO_TRAM_STOP.fid-364680f9_183c55e9406_5666","geometry":{"type":"Point","coordinates":[145.0338,-37.8056]},"geometry_name":"SHAPE","properties":{"OBJECTID":506,"STOP_ID":"18347","STOP_NAME":"34-Pakington St/High St (Kew)","LATITUDE":-37.805617,"LONGITUDE":145.033837,"TICKETZONE":"1","ROUTES_USING_STOP":"48","SE_ANNO_CAD_DATA":null},"bbox":[145.0338,-37.8056,145.0338,-37.8056]},{"type":"Feature","id":"PTV_METRO_TRAM_STOP.fid-364680f9_183c55e9406_5667","geometry":{"type":"Point","coordinates":[145.0355,-37.805]},"geometry_name":"SHAPE","properties":{"OBJECTID":507,"STOP_ID":"18348","STOP_NAME":"35-Cobden St/High St (Kew)","LATITUDE":-37.804987,"LONGITUDE":145.035546,"TICKETZONE":"1","ROUTES_USING_STOP":"48","SE_ANNO_CAD_DATA":null},"bbox":[145.0355,-37.805,145.0355,-37.805]},{"type":"Feature","id":"PTV_METRO_TRAM_STOP.fid-364680f9_183c55e9406_5668","geometry":{"type":"Point","coordinates":[145.0398,-37.8035]},"geometry_name":"SHAPE","properties":{"OBJECTID":508,"STOP_ID":"18349","STOP_NAME":"36-Parkhill Rd/High St (Kew)","LATITUDE":-37.803489,"LONGITUDE":145.039755,"TICKETZONE":"1","ROUTES_USING_STOP":"48","SE_ANNO_CAD_DATA":null},"bbox":[145.0398,-37.8035,145.0398,-37.8035]},{"type":"Feature","id":"PTV_METRO_TRAM_STOP.fid-364680f9_183c55e9406_5669","geometry":{"type":"Point","coordinates":[145.0426,-37.8025]},"geometry_name":"SHAPE","properties":{"OBJECTID":509,"STOP_ID":"18350","STOP_NAME":"37-Kew Cemetery/High St (Kew)","LATITUDE":-37.802473,"LONGITUDE":145.042564,"TICKETZONE":"1","ROUTES_USING_STOP":"48","SE_ANNO_CAD_DATA":null},"bbox":[145.0426,-37.8025,145.0426,-37.8025]},{"type":"Feature","id":"PTV_METRO_TRAM_STOP.fid-364680f9_183c55e9406_566a","geometry":{"type":"Point","coordinates":[145.046,-37.8013]},"geometry_name":"SHAPE","properties":{"OBJECTID":510,"STOP_ID":"18351","STOP_NAME":"38-Victoria Park/High St (Kew)","LATITUDE":-37.801259,"LONGITUDE":145.045981,"TICKETZONE":"1","ROUTES_USING_STOP":"48","SE_ANNO_CAD_DATA":null},"bbox":[145.046,-37.8013,145.046,-37.8013]},{"type":"Feature","id":"PTV_METRO_TRAM_STOP.fid-364680f9_183c55e9406_566b","geometry":{"type":"Point","coordinates":[145.0504,-37.7994]},"geometry_name":"SHAPE","properties":{"OBJECTID":511,"STOP_ID":"18352","STOP_NAME":"39-Harp Rd/High St (Kew)","LATITUDE":-37.799413,"LONGITUDE":145.050436,"TICKETZONE":"1","ROUTES_USING_STOP":"48","SE_ANNO_CAD_DATA":null},"bbox":[145.0504,-37.7994,145.0504,-37.7994]},{"type":"Feature","id":"PTV_METRO_TRAM_STOP.fid-364680f9_183c55e9406_566c","geometry":{"type":"Point","coordinates":[145.052,-37.7986]},"geometry_name":"SHAPE","properties":{"OBJECTID":512,"STOP_ID":"18353","STOP_NAME":"40-Harp Village/High St (Kew East)","LATITUDE":-37.798628,"LONGITUDE":145.052024,"TICKETZONE":"1","ROUTES_USING_STOP":"48","SE_ANNO_CAD_DATA":null},"bbox":[145.052,-37.7986,145.052,-37.7986]},{"type":"Feature","id":"PTV_METRO_TRAM_STOP.fid-364680f9_183c55e9406_566d","geometry":{"type":"Point","coordinates":[145.0548,-37.7974]},"geometry_name":"SHAPE","properties":{"OBJECTID":513,"STOP_ID":"18354","STOP_NAME":"41-Clyde St/High St (Kew East)","LATITUDE":-37.797439,"LONGITUDE":145.054758,"TICKETZONE":"1","ROUTES_USING_STOP":"48","SE_ANNO_CAD_DATA":null},"bbox":[145.0548,-37.7974,145.0548,-37.7974]},{"type":"Feature","id":"PTV_METRO_TRAM_STOP.fid-364680f9_183c55e9406_566e","geometry":{"type":"Point","coordinates":[145.0572,-37.7964]},"geometry_name":"SHAPE","properties":{"OBJECTID":514,"STOP_ID":"18355","STOP_NAME":"42-Irymple Ave/High St (Kew East)","LATITUDE":-37.796397,"LONGITUDE":145.057159,"TICKETZONE":"1","ROUTES_USING_STOP":"48","SE_ANNO_CAD_DATA":null},"bbox":[145.0572,-37.7964,145.0572,-37.7964]},{"type":"Feature","id":"PTV_METRO_TRAM_STOP.fid-364680f9_183c55e9406_566f","geometry":{"type":"Point","coordinates":[145.0611,-37.7947]},"geometry_name":"SHAPE","properties":{"OBJECTID":515,"STOP_ID":"18356","STOP_NAME":"43-Kew High School/High St (Kew East)","LATITUDE":-37.79465,"LONGITUDE":145.061089,"TICKETZONE":"1","ROUTES_USING_STOP":"48","SE_ANNO_CAD_DATA":null},"bbox":[145.0611,-37.7947,145.0611,-37.7947]},{"type":"Feature","id":"PTV_METRO_TRAM_STOP.fid-364680f9_183c55e9406_5670","geometry":{"type":"Point","coordinates":[145.0637,-37.7935]},"geometry_name":"SHAPE","properties":{"OBJECTID":516,"STOP_ID":"18357","STOP_NAME":"44-Burke Rd/High St (Kew)","LATITUDE":-37.79353,"LONGITUDE":145.063662,"TICKETZONE":"1","ROUTES_USING_STOP":"48","SE_ANNO_CAD_DATA":null},"bbox":[145.0637,-37.7935,145.0637,-37.7935]},{"type":"Feature","id":"PTV_METRO_TRAM_STOP.fid-364680f9_183c55e9406_5671","geometry":{"type":"Point","coordinates":[145.0652,-37.7932]},"geometry_name":"SHAPE","properties":{"OBJECTID":517,"STOP_ID":"18358","STOP_NAME":"45-Burke Rd/Doncaster Rd (Balwyn North)","LATITUDE":-37.793168,"LONGITUDE":145.065216,"TICKETZONE":"1","ROUTES_USING_STOP":"48","SE_ANNO_CAD_DATA":null},"bbox":[145.0652,-37.7932,145.0652,-37.7932]},{"type":"Feature","id":"PTV_METRO_TRAM_STOP.fid-364680f9_183c55e9406_5672","geometry":{"type":"Point","coordinates":[145.0675,-37.7928]},"geometry_name":"SHAPE","properties":{"OBJECTID":518,"STOP_ID":"18359","STOP_NAME":"46-Wattle Ave/Doncaster Rd (Balwyn North)","LATITUDE":-37.792835,"LONGITUDE":145.06745,"TICKETZONE":"1","ROUTES_USING_STOP":"48","SE_ANNO_CAD_DATA":null},"bbox":[145.0675,-37.7928,145.0675,-37.7928]},{"type":"Feature","id":"PTV_METRO_TRAM_STOP.fid-364680f9_183c55e9406_5673","geometry":{"type":"Point","coordinates":[145.0714,-37.7927]},"geometry_name":"SHAPE","properties":{"OBJECTID":519,"STOP_ID":"18360","STOP_NAME":"47-North Balwyn Shopping Centre/Doncaster Rd (Balwyn North)","LATITUDE":-37.792712,"LONGITUDE":145.07144,"TICKETZONE":"1","ROUTES_USING_STOP":"48","SE_ANNO_CAD_DATA":null},"bbox":[145.0714,-37.7927,145.0714,-37.7927]},{"type":"Feature","id":"PTV_METRO_TRAM_STOP.fid-364680f9_183c55e9406_5674","geometry":{"type":"Point","coordinates":[145.0743,-37.7932]},"geometry_name":"SHAPE","properties":{"OBJECTID":520,"STOP_ID":"18361","STOP_NAME":"48-Sunburst Ave/Doncaster Rd (Balwyn North)","LATITUDE":-37.793217,"LONGITUDE":145.074266,"TICKETZONE":"1","ROUTES_USING_STOP":"48","SE_ANNO_CAD_DATA":null},"bbox":[145.0743,-37.7932,145.0743,-37.7932]},{"type":"Feature","id":"PTV_METRO_TRAM_STOP.fid-364680f9_183c55e9406_5675","geometry":{"type":"Point","coordinates":[145.0775,-37.7938]},"geometry_name":"SHAPE","properties":{"OBJECTID":521,"STOP_ID":"18362","STOP_NAME":"49-Cityview Rd/Doncaster Rd (Balwyn North)","LATITUDE":-37.793756,"LONGITUDE":145.077466,"TICKETZONE":"1","ROUTES_USING_STOP":"48","SE_ANNO_CAD_DATA":null},"bbox":[145.0775,-37.7938,145.0775,-37.7938]},{"type":"Feature","id":"PTV_METRO_TRAM_STOP.fid-364680f9_183c55e9406_5676","geometry":{"type":"Point","coordinates":[145.0812,-37.7943]},"geometry_name":"SHAPE","properties":{"OBJECTID":522,"STOP_ID":"18363","STOP_NAME":"50-Hill Rd/Doncaster Rd (Balwyn North)","LATITUDE":-37.794259,"LONGITUDE":145.081189,"TICKETZONE":"1","ROUTES_USING_STOP":"48","SE_ANNO_CAD_DATA":null},"bbox":[145.0812,-37.7943,145.0812,-37.7943]},{"type":"Feature","id":"PTV_METRO_TRAM_STOP.fid-364680f9_183c55e9406_5677","geometry":{"type":"Point","coordinates":[144.9883,-37.8701]},"geometry_name":"SHAPE","properties":{"OBJECTID":523,"STOP_ID":"18364","STOP_NAME":"36-St Kilda Primary School/Brighton Rd (Elwood)","LATITUDE":-37.87012,"LONGITUDE":144.988345,"TICKETZONE":"1","ROUTES_USING_STOP":"67","SE_ANNO_CAD_DATA":null},"bbox":[144.9883,-37.8701,144.9883,-37.8701]},{"type":"Feature","id":"PTV_METRO_TRAM_STOP.fid-364680f9_183c55e9406_5678","geometry":{"type":"Point","coordinates":[144.9901,-37.8729]},"geometry_name":"SHAPE","properties":{"OBJECTID":524,"STOP_ID":"18365","STOP_NAME":"38-Wimbledon Ave/Brighton Rd (Elwood)","LATITUDE":-37.872881,"LONGITUDE":144.990078,"TICKETZONE":"1","ROUTES_USING_STOP":"67","SE_ANNO_CAD_DATA":null},"bbox":[144.9901,-37.8729,144.9901,-37.8729]},{"type":"Feature","id":"PTV_METRO_TRAM_STOP.fid-364680f9_183c55e9406_5679","geometry":{"type":"Point","coordinates":[144.992,-37.876]},"geometry_name":"SHAPE","properties":{"OBJECTID":525,"STOP_ID":"18367","STOP_NAME":"39-Glen Eira Rd/Brighton Rd (Elwood)","LATITUDE":-37.87596,"LONGITUDE":144.992018,"TICKETZONE":"1","ROUTES_USING_STOP":"67","SE_ANNO_CAD_DATA":null},"bbox":[144.992,-37.876,144.992,-37.876]},{"type":"Feature","id":"PTV_METRO_TRAM_STOP.fid-364680f9_183c55e9406_567a","geometry":{"type":"Point","coordinates":[144.9939,-37.8789]},"geometry_name":"SHAPE","properties":{"OBJECTID":526,"STOP_ID":"18368","STOP_NAME":"40-Scott St/Brighton Rd (Elwood)","LATITUDE":-37.878947,"LONGITUDE":144.993892,"TICKETZONE":"1","ROUTES_USING_STOP":"67","SE_ANNO_CAD_DATA":null},"bbox":[144.9939,-37.8789,144.9939,-37.8789]},{"type":"Feature","id":"PTV_METRO_TRAM_STOP.fid-364680f9_183c55e9406_567b","geometry":{"type":"Point","coordinates":[144.9951,-37.8808]},"geometry_name":"SHAPE","properties":{"OBJECTID":527,"STOP_ID":"18369","STOP_NAME":"41-Coleridge St/Brighton Rd (Elwood)","LATITUDE":-37.880842,"LONGITUDE":144.99508,"TICKETZONE":"1","ROUTES_USING_STOP":"67","SE_ANNO_CAD_DATA":null},"bbox":[144.9951,-37.8808,144.9951,-37.8808]},{"type":"Feature","id":"PTV_METRO_TRAM_STOP.fid-364680f9_183c55e9406_567c","geometry":{"type":"Point","coordinates":[144.9963,-37.8829]},"geometry_name":"SHAPE","properties":{"OBJECTID":528,"STOP_ID":"18370","STOP_NAME":"42-Hotham St/Brighton Rd (St Kilda East)","LATITUDE":-37.882864,"LONGITUDE":144.996344,"TICKETZONE":"1","ROUTES_USING_STOP":"67","SE_ANNO_CAD_DATA":null},"bbox":[144.9963,-37.8829,144.9963,-37.8829]},{"type":"Feature","id":"PTV_METRO_TRAM_STOP.fid-364680f9_183c55e9406_567d","geometry":{"type":"Point","coordinates":[144.9976,-37.8839]},"geometry_name":"SHAPE","properties":{"OBJECTID":529,"STOP_ID":"18371","STOP_NAME":"43-Brighton Rd/Glenhuntly Rd (Elsternwick)","LATITUDE":-37.883904,"LONGITUDE":144.997578,"TICKETZONE":"1","ROUTES_USING_STOP":"67","SE_ANNO_CAD_DATA":null},"bbox":[144.9976,-37.8839,144.9976,-37.8839]},{"type":"Feature","id":"PTV_METRO_TRAM_STOP.fid-364680f9_183c55e9406_567e","geometry":{"type":"Point","coordinates":[145.0006,-37.8843]},"geometry_name":"SHAPE","properties":{"OBJECTID":530,"STOP_ID":"18372","STOP_NAME":"44-Elsternwick Railway Station/Glenhuntly Rd (Elsternwick)","LATITUDE":-37.884306,"LONGITUDE":145.000557,"TICKETZONE":"1","ROUTES_USING_STOP":"67","SE_ANNO_CAD_DATA":null},"bbox":[145.0006,-37.8843,145.0006,-37.8843]},{"type":"Feature","id":"PTV_METRO_TRAM_STOP.fid-364680f9_183c55e9406_567f","geometry":{"type":"Point","coordinates":[145.0039,-37.8848]},"geometry_name":"SHAPE","properties":{"OBJECTID":531,"STOP_ID":"18373","STOP_NAME":"45-Elsternwick Shopping Centre/Glenhuntly Rd (Elsternwick)","LATITUDE":-37.884751,"LONGITUDE":145.003945,"TICKETZONE":"1","ROUTES_USING_STOP":"67","SE_ANNO_CAD_DATA":null},"bbox":[145.0039,-37.8848,145.0039,-37.8848]},{"type":"Feature","id":"PTV_METRO_TRAM_STOP.fid-364680f9_183c55e9406_5680","geometry":{"type":"Point","coordinates":[145.0062,-37.8851]},"geometry_name":"SHAPE","properties":{"OBJECTID":532,"STOP_ID":"18374","STOP_NAME":"46-Orrong Rd/Glenhuntly Rd (Elsternwick)","LATITUDE":-37.885051,"LONGITUDE":145.006211,"TICKETZONE":"1","ROUTES_USING_STOP":"67","SE_ANNO_CAD_DATA":null},"bbox":[145.0062,-37.8851,145.0062,-37.8851]},{"type":"Feature","id":"PTV_METRO_TRAM_STOP.fid-364680f9_183c55e9406_5681","geometry":{"type":"Point","coordinates":[145.0091,-37.8854]},"geometry_name":"SHAPE","properties":{"OBJECTID":533,"STOP_ID":"18375","STOP_NAME":"47-Shoobra Rd/Glenhuntly Rd (Elsternwick)","LATITUDE":-37.885388,"LONGITUDE":145.009113,"TICKETZONE":"1","ROUTES_USING_STOP":"67","SE_ANNO_CAD_DATA":null},"bbox":[145.0091,-37.8854,145.0091,-37.8854]},{"type":"Feature","id":"PTV_METRO_TRAM_STOP.fid-364680f9_183c55e9406_5682","geometry":{"type":"Point","coordinates":[145.0122,-37.8858]},"geometry_name":"SHAPE","properties":{"OBJECTID":534,"STOP_ID":"18376","STOP_NAME":"48-Parkside St/Glenhuntly Rd (Elsternwick)","LATITUDE":-37.885756,"LONGITUDE":145.012241,"TICKETZONE":"1","ROUTES_USING_STOP":"67","SE_ANNO_CAD_DATA":null},"bbox":[145.0122,-37.8858,145.0122,-37.8858]},{"type":"Feature","id":"PTV_METRO_TRAM_STOP.fid-364680f9_183c55e9406_5683","geometry":{"type":"Point","coordinates":[145.0151,-37.8861]},"geometry_name":"SHAPE","properties":{"OBJECTID":535,"STOP_ID":"18392","STOP_NAME":"49-Kooyong Rd/Glenhuntly Rd (Elsternwick)","LATITUDE":-37.886102,"LONGITUDE":145.015086,"TICKETZONE":"1","ROUTES_USING_STOP":"67","SE_ANNO_CAD_DATA":null},"bbox":[145.0151,-37.8861,145.0151,-37.8861]},{"type":"Feature","id":"PTV_METRO_TRAM_STOP.fid-364680f9_183c55e9406_5684","geometry":{"type":"Point","coordinates":[145.0183,-37.8865]},"geometry_name":"SHAPE","properties":{"OBJECTID":536,"STOP_ID":"18393","STOP_NAME":"50-Royal Pde/Glenhuntly Rd (Caulfield)","LATITUDE":-37.886498,"LONGITUDE":145.018259,"TICKETZONE":"1","ROUTES_USING_STOP":"67","SE_ANNO_CAD_DATA":null},"bbox":[145.0183,-37.8865,145.0183,-37.8865]},{"type":"Feature","id":"PTV_METRO_TRAM_STOP.fid-364680f9_183c55e9406_5685","geometry":{"type":"Point","coordinates":[145.0222,-37.887]},"geometry_name":"SHAPE","properties":{"OBJECTID":537,"STOP_ID":"18394","STOP_NAME":"51-Hawthorn Rd/Glenhuntly Rd (Caulfield)","LATITUDE":-37.886978,"LONGITUDE":145.022181,"TICKETZONE":"1","ROUTES_USING_STOP":"67","SE_ANNO_CAD_DATA":null},"bbox":[145.0222,-37.887,145.0222,-37.887]},{"type":"Feature","id":"PTV_METRO_TRAM_STOP.fid-364680f9_183c55e9406_5686","geometry":{"type":"Point","coordinates":[145.0241,-37.8872]},"geometry_name":"SHAPE","properties":{"OBJECTID":538,"STOP_ID":"18395","STOP_NAME":"52-Jasmine St/Glenhuntly Rd (Caulfield)","LATITUDE":-37.887218,"LONGITUDE":145.024141,"TICKETZONE":"1","ROUTES_USING_STOP":"67","SE_ANNO_CAD_DATA":null},"bbox":[145.0241,-37.8872,145.0241,-37.8872]},{"type":"Feature","id":"PTV_METRO_TRAM_STOP.fid-364680f9_183c55e9406_5687","geometry":{"type":"Point","coordinates":[145.0271,-37.8876]},"geometry_name":"SHAPE","properties":{"OBJECTID":539,"STOP_ID":"18396","STOP_NAME":"53-Glenhuntly Tram Depot/Glenhuntly Rd (Caulfield)","LATITUDE":-37.887611,"LONGITUDE":145.02711,"TICKETZONE":"1","ROUTES_USING_STOP":"67","SE_ANNO_CAD_DATA":null},"bbox":[145.0271,-37.8876,145.0271,-37.8876]},{"type":"Feature","id":"PTV_METRO_TRAM_STOP.fid-364680f9_183c55e9406_5688","geometry":{"type":"Point","coordinates":[145.0289,-37.8878]},"geometry_name":"SHAPE","properties":{"OBJECTID":540,"STOP_ID":"18397","STOP_NAME":"54-Bambra Rd/Glenhuntly Rd (Caulfield)","LATITUDE":-37.887839,"LONGITUDE":145.0289,"TICKETZONE":"1","ROUTES_USING_STOP":"67","SE_ANNO_CAD_DATA":null},"bbox":[145.0289,-37.8878,145.0289,-37.8878]},{"type":"Feature","id":"PTV_METRO_TRAM_STOP.fid-364680f9_183c55e9406_5689","geometry":{"type":"Point","coordinates":[145.031,-37.8881]},"geometry_name":"SHAPE","properties":{"OBJECTID":541,"STOP_ID":"18398","STOP_NAME":"55-Fallon St/Glenhuntly Rd (Caulfield)","LATITUDE":-37.888108,"LONGITUDE":145.030986,"TICKETZONE":"1","ROUTES_USING_STOP":"67","SE_ANNO_CAD_DATA":null},"bbox":[145.031,-37.8881,145.031,-37.8881]},{"type":"Feature","id":"PTV_METRO_TRAM_STOP.fid-364680f9_183c55e9406_568a","geometry":{"type":"Point","coordinates":[145.0334,-37.8884]},"geometry_name":"SHAPE","properties":{"OBJECTID":542,"STOP_ID":"18399","STOP_NAME":"56-Kean St/Glenhuntly Rd (Caulfield)","LATITUDE":-37.888419,"LONGITUDE":145.033433,"TICKETZONE":"1","ROUTES_USING_STOP":"67","SE_ANNO_CAD_DATA":null},"bbox":[145.0334,-37.8884,145.0334,-37.8884]},{"type":"Feature","id":"PTV_METRO_TRAM_STOP.fid-364680f9_183c55e9406_568b","geometry":{"type":"Point","coordinates":[145.0355,-37.8887]},"geometry_name":"SHAPE","properties":{"OBJECTID":543,"STOP_ID":"18400","STOP_NAME":"57-Laura St/Glenhuntly Rd (Caulfield)","LATITUDE":-37.88867,"LONGITUDE":145.035485,"TICKETZONE":"1","ROUTES_USING_STOP":"67","SE_ANNO_CAD_DATA":null},"bbox":[145.0355,-37.8887,145.0355,-37.8887]},{"type":"Feature","id":"PTV_METRO_TRAM_STOP.fid-364680f9_183c55e9406_568c","geometry":{"type":"Point","coordinates":[145.0378,-37.889]},"geometry_name":"SHAPE","properties":{"OBJECTID":544,"STOP_ID":"18401","STOP_NAME":"58-Booran Rd/Glenhuntly Rd (Caulfield)","LATITUDE":-37.888961,"LONGITUDE":145.037808,"TICKETZONE":"1","ROUTES_USING_STOP":"67","SE_ANNO_CAD_DATA":null},"bbox":[145.0378,-37.889,145.0378,-37.889]},{"type":"Feature","id":"PTV_METRO_TRAM_STOP.fid-364680f9_183c55e9406_568d","geometry":{"type":"Point","coordinates":[145.0408,-37.8893]},"geometry_name":"SHAPE","properties":{"OBJECTID":545,"STOP_ID":"18403","STOP_NAME":"60-Glenhuntly Shops/Glenhuntly Rd (Glen Huntly)","LATITUDE":-37.889308,"LONGITUDE":145.040767,"TICKETZONE":"1","ROUTES_USING_STOP":"67","SE_ANNO_CAD_DATA":null},"bbox":[145.0408,-37.8893,145.0408,-37.8893]},{"type":"Feature","id":"PTV_METRO_TRAM_STOP.fid-364680f9_183c55e9406_568e","geometry":{"type":"Point","coordinates":[145.0428,-37.8895]},"geometry_name":"SHAPE","properties":{"OBJECTID":546,"STOP_ID":"18404","STOP_NAME":"61-Glenhuntly Railway Station/Glenhuntly Rd (Glen Huntly)","LATITUDE":-37.889548,"LONGITUDE":145.04275,"TICKETZONE":"1","ROUTES_USING_STOP":"67","SE_ANNO_CAD_DATA":null},"bbox":[145.0428,-37.8895,145.0428,-37.8895]},{"type":"Feature","id":"PTV_METRO_TRAM_STOP.fid-364680f9_183c55e9406_568f","geometry":{"type":"Point","coordinates":[145.045,-37.8898]},"geometry_name":"SHAPE","properties":{"OBJECTID":547,"STOP_ID":"18405","STOP_NAME":"62-Grange Rd/Glenhuntly Rd (Glen Huntly)","LATITUDE":-37.889838,"LONGITUDE":145.04504,"TICKETZONE":"1","ROUTES_USING_STOP":"67","SE_ANNO_CAD_DATA":null},"bbox":[145.045,-37.8898,145.045,-37.8898]},{"type":"Feature","id":"PTV_METRO_TRAM_STOP.fid-364680f9_183c55e9406_5690","geometry":{"type":"Point","coordinates":[145.0477,-37.8901]},"geometry_name":"SHAPE","properties":{"OBJECTID":548,"STOP_ID":"18406","STOP_NAME":"63-Maroona Rd/Glenhuntly Rd (Carnegie)","LATITUDE":-37.890143,"LONGITUDE":145.047658,"TICKETZONE":"1","ROUTES_USING_STOP":"67","SE_ANNO_CAD_DATA":null},"bbox":[145.0477,-37.8901,145.0477,-37.8901]},{"type":"Feature","id":"PTV_METRO_TRAM_STOP.fid-364680f9_183c55e9406_5691","geometry":{"type":"Point","coordinates":[145.0499,-37.8904]},"geometry_name":"SHAPE","properties":{"OBJECTID":549,"STOP_ID":"18407","STOP_NAME":"64-Mernda Ave/Glenhuntly Rd (Carnegie)","LATITUDE":-37.890406,"LONGITUDE":145.049903,"TICKETZONE":"1","ROUTES_USING_STOP":"67","SE_ANNO_CAD_DATA":null},"bbox":[145.0499,-37.8904,145.0499,-37.8904]},{"type":"Feature","id":"PTV_METRO_TRAM_STOP.fid-364680f9_183c55e9406_5692","geometry":{"type":"Point","coordinates":[145.0522,-37.8907]},"geometry_name":"SHAPE","properties":{"OBJECTID":550,"STOP_ID":"18408","STOP_NAME":"65-Mimosa Rd/Glenhuntly Rd (Carnegie)","LATITUDE":-37.890714,"LONGITUDE":145.052192,"TICKETZONE":"1","ROUTES_USING_STOP":"67","SE_ANNO_CAD_DATA":null},"bbox":[145.0522,-37.8907,145.0522,-37.8907]},{"type":"Feature","id":"PTV_METRO_TRAM_STOP.fid-364680f9_183c55e9406_5693","geometry":{"type":"Point","coordinates":[145.054,-37.8911]},"geometry_name":"SHAPE","properties":{"OBJECTID":551,"STOP_ID":"18409","STOP_NAME":"66-Glenhuntly Rd/Truganini Rd (Carnegie)","LATITUDE":-37.891069,"LONGITUDE":145.054048,"TICKETZONE":"1","ROUTES_USING_STOP":"67","SE_ANNO_CAD_DATA":null},"bbox":[145.054,-37.8911,145.054,-37.8911]},{"type":"Feature","id":"PTV_METRO_TRAM_STOP.fid-364680f9_183c55e9406_5694","geometry":{"type":"Point","coordinates":[145.0544,-37.8927]},"geometry_name":"SHAPE","properties":{"OBJECTID":552,"STOP_ID":"18410","STOP_NAME":"67-Centre Rd/Truganini Rd (Carnegie)","LATITUDE":-37.892697,"LONGITUDE":145.054369,"TICKETZONE":"1","ROUTES_USING_STOP":"67","SE_ANNO_CAD_DATA":null},"bbox":[145.0544,-37.8927,145.0544,-37.8927]},{"type":"Feature","id":"PTV_METRO_TRAM_STOP.fid-364680f9_183c55e9406_5695","geometry":{"type":"Point","coordinates":[145.0558,-37.8939]},"geometry_name":"SHAPE","properties":{"OBJECTID":553,"STOP_ID":"18411","STOP_NAME":"68-Carnegie/Truganini Rd (Carnegie)","LATITUDE":-37.893865,"LONGITUDE":145.055805,"TICKETZONE":"1","ROUTES_USING_STOP":"67","SE_ANNO_CAD_DATA":null},"bbox":[145.0558,-37.8939,145.0558,-37.8939]},{"type":"Feature","id":"PTV_METRO_TRAM_STOP.fid-364680f9_183c55e9406_5696","geometry":{"type":"Point","coordinates":[145.0169,-37.9142]},"geometry_name":"SHAPE","properties":{"OBJECTID":554,"STOP_ID":"18412","STOP_NAME":"68-East Brighton/Hawthorn Rd (Brighton East)","LATITUDE":-37.914222,"LONGITUDE":145.01689,"TICKETZONE":"1","ROUTES_USING_STOP":"64","SE_ANNO_CAD_DATA":null},"bbox":[145.0169,-37.9142,145.0169,-37.9142]},{"type":"Feature","id":"PTV_METRO_TRAM_STOP.fid-364680f9_183c55e9406_5697","geometry":{"type":"Point","coordinates":[145.0174,-37.9111]},"geometry_name":"SHAPE","properties":{"OBJECTID":555,"STOP_ID":"18413","STOP_NAME":"67-Howell St/Hawthorn Rd (Brighton East)","LATITUDE":-37.911094,"LONGITUDE":145.017395,"TICKETZONE":"1","ROUTES_USING_STOP":"64","SE_ANNO_CAD_DATA":null},"bbox":[145.0174,-37.9111,145.0174,-37.9111]},{"type":"Feature","id":"PTV_METRO_TRAM_STOP.fid-364680f9_183c55e9406_5698","geometry":{"type":"Point","coordinates":[145.0178,-37.9087]},"geometry_name":"SHAPE","properties":{"OBJECTID":556,"STOP_ID":"18414","STOP_NAME":"66-Union St/Hawthorn Rd (Brighton East)","LATITUDE":-37.90873,"LONGITUDE":145.017765,"TICKETZONE":"1","ROUTES_USING_STOP":"64","SE_ANNO_CAD_DATA":null},"bbox":[145.0178,-37.9087,145.0178,-37.9087]},{"type":"Feature","id":"PTV_METRO_TRAM_STOP.fid-364680f9_183c55e9406_5699","geometry":{"type":"Point","coordinates":[145.0181,-37.9066]},"geometry_name":"SHAPE","properties":{"OBJECTID":557,"STOP_ID":"18415","STOP_NAME":"65-Davey Ave/Hawthorn Rd (Brighton East)","LATITUDE":-37.906574,"LONGITUDE":145.018141,"TICKETZONE":"1","ROUTES_USING_STOP":"64","SE_ANNO_CAD_DATA":null},"bbox":[145.0181,-37.9066,145.0181,-37.9066]},{"type":"Feature","id":"PTV_METRO_TRAM_STOP.fid-364680f9_183c55e9406_569a","geometry":{"type":"Point","coordinates":[145.0186,-37.9041]},"geometry_name":"SHAPE","properties":{"OBJECTID":558,"STOP_ID":"18416","STOP_NAME":"64-Taylor St/Hawthorn Rd (Brighton East)","LATITUDE":-37.904094,"LONGITUDE":145.018595,"TICKETZONE":"1","ROUTES_USING_STOP":"64","SE_ANNO_CAD_DATA":null},"bbox":[145.0186,-37.9041,145.0186,-37.9041]},{"type":"Feature","id":"PTV_METRO_TRAM_STOP.fid-364680f9_183c55e9406_569b","geometry":{"type":"Point","coordinates":[145.0191,-37.9016]},"geometry_name":"SHAPE","properties":{"OBJECTID":559,"STOP_ID":"18417","STOP_NAME":"63-North Rd/Hawthorn Rd (Brighton East)","LATITUDE":-37.90157,"LONGITUDE":145.019072,"TICKETZONE":"1","ROUTES_USING_STOP":"64","SE_ANNO_CAD_DATA":null},"bbox":[145.0191,-37.9016,145.0191,-37.9016]},{"type":"Feature","id":"PTV_METRO_TRAM_STOP.fid-364680f9_183c55e9406_569c","geometry":{"type":"Point","coordinates":[144.9777,-37.7444]},"geometry_name":"SHAPE","properties":{"OBJECTID":637,"STOP_ID":"18730","STOP_NAME":"134-Merribell Ave/Nicholson St (Coburg)","LATITUDE":-37.744359,"LONGITUDE":144.977728,"TICKETZONE":"1","ROUTES_USING_STOP":"1","SE_ANNO_CAD_DATA":null},"bbox":[144.9777,-37.7444,144.9777,-37.7444]},{"type":"Feature","id":"PTV_METRO_TRAM_STOP.fid-364680f9_183c55e9406_569d","geometry":{"type":"Point","coordinates":[145.0687,-37.8114]},"geometry_name":"SHAPE","properties":{"OBJECTID":638,"STOP_ID":"18732","STOP_NAME":"44-Deepdene Park/Whitehorse Rd (Balwyn)","LATITUDE":-37.811375,"LONGITUDE":145.068671,"TICKETZONE":"1","ROUTES_USING_STOP":"109","SE_ANNO_CAD_DATA":null},"bbox":[145.0687,-37.8114,145.0687,-37.8114]},{"type":"Feature","id":"PTV_METRO_TRAM_STOP.fid-364680f9_183c55e9406_569e","geometry":{"type":"Point","coordinates":[145.0718,-37.8118]},"geometry_name":"SHAPE","properties":{"OBJECTID":639,"STOP_ID":"18733","STOP_NAME":"45-Hardwicke St/Whitehorse Rd (Balwyn)","LATITUDE":-37.81175,"LONGITUDE":145.071785,"TICKETZONE":"1","ROUTES_USING_STOP":"109","SE_ANNO_CAD_DATA":null},"bbox":[145.0718,-37.8118,145.0718,-37.8118]},{"type":"Feature","id":"PTV_METRO_TRAM_STOP.fid-364680f9_183c55e9406_569f","geometry":{"type":"Point","coordinates":[145.0759,-37.8122]},"geometry_name":"SHAPE","properties":{"OBJECTID":640,"STOP_ID":"18734","STOP_NAME":"46-Balwyn Cinema/Whitehorse Rd (Balwyn)","LATITUDE":-37.812242,"LONGITUDE":145.07593,"TICKETZONE":"1","ROUTES_USING_STOP":"109","SE_ANNO_CAD_DATA":null},"bbox":[145.0759,-37.8122,145.0759,-37.8122]},{"type":"Feature","id":"PTV_METRO_TRAM_STOP.fid-364680f9_183c55e9406_56a0","geometry":{"type":"Point","coordinates":[145.0815,-37.8129]},"geometry_name":"SHAPE","properties":{"OBJECTID":641,"STOP_ID":"18735","STOP_NAME":"47-Balwyn Rd/Whitehorse Rd (Balwyn)","LATITUDE":-37.812919,"LONGITUDE":145.081524,"TICKETZONE":"1,2","ROUTES_USING_STOP":"109","SE_ANNO_CAD_DATA":null},"bbox":[145.0815,-37.8129,145.0815,-37.8129]},{"type":"Feature","id":"PTV_METRO_TRAM_STOP.fid-364680f9_183c55e9406_56a1","geometry":{"type":"Point","coordinates":[145.0838,-37.8132]},"geometry_name":"SHAPE","properties":{"OBJECTID":642,"STOP_ID":"18736","STOP_NAME":"48-Balwyn Shopping Centre/Whitehorse Rd (Balwyn)","LATITUDE":-37.813199,"LONGITUDE":145.083788,"TICKETZONE":"1,2","ROUTES_USING_STOP":"109","SE_ANNO_CAD_DATA":null},"bbox":[145.0838,-37.8132,145.0838,-37.8132]},{"type":"Feature","id":"PTV_METRO_TRAM_STOP.fid-364680f9_183c55e9406_56a2","geometry":{"type":"Point","coordinates":[145.088,-37.8137]},"geometry_name":"SHAPE","properties":{"OBJECTID":643,"STOP_ID":"18737","STOP_NAME":"49-Northcote Ave/Whitehorse Rd (Balwyn)","LATITUDE":-37.81369,"LONGITUDE":145.087956,"TICKETZONE":"1,2","ROUTES_USING_STOP":"109","SE_ANNO_CAD_DATA":null},"bbox":[145.088,-37.8137,145.088,-37.8137]},{"type":"Feature","id":"PTV_METRO_TRAM_STOP.fid-364680f9_183c55e9406_56a3","geometry":{"type":"Point","coordinates":[145.0952,-37.8146]},"geometry_name":"SHAPE","properties":{"OBJECTID":644,"STOP_ID":"18738","STOP_NAME":"51-Narrak Rd/Whitehorse Rd (Mont Albert)","LATITUDE":-37.814564,"LONGITUDE":145.09517,"TICKETZONE":"1,2","ROUTES_USING_STOP":"109","SE_ANNO_CAD_DATA":null},"bbox":[145.0952,-37.8146,145.0952,-37.8146]},{"type":"Feature","id":"PTV_METRO_TRAM_STOP.fid-364680f9_183c55e9406_56a4","geometry":{"type":"Point","coordinates":[145.014,-37.8418]},"geometry_name":"SHAPE","properties":{"OBJECTID":645,"STOP_ID":"18781","STOP_NAME":"134-Orrong Rd/Toorak Rd (Toorak)","LATITUDE":-37.841755,"LONGITUDE":145.014048,"TICKETZONE":"1","ROUTES_USING_STOP":"58","SE_ANNO_CAD_DATA":null},"bbox":[145.014,-37.8418,145.014,-37.8418]},{"type":"Feature","id":"PTV_METRO_TRAM_STOP.fid-364680f9_183c55e9406_56a5","geometry":{"type":"Point","coordinates":[145.0176,-37.8422]},"geometry_name":"SHAPE","properties":{"OBJECTID":646,"STOP_ID":"18782","STOP_NAME":"135-Woorigoleen Rd/Toorak Rd (Toorak)","LATITUDE":-37.842166,"LONGITUDE":145.017583,"TICKETZONE":"1","ROUTES_USING_STOP":"58","SE_ANNO_CAD_DATA":null},"bbox":[145.0176,-37.8422,145.0176,-37.8422]},{"type":"Feature","id":"PTV_METRO_TRAM_STOP.fid-364680f9_183c55e9406_56a6","geometry":{"type":"Point","coordinates":[145.0201,-37.8425]},"geometry_name":"SHAPE","properties":{"OBJECTID":647,"STOP_ID":"18783","STOP_NAME":"136-Irving Rd/Toorak Rd (Toorak)","LATITUDE":-37.842461,"LONGITUDE":145.020086,"TICKETZONE":"1","ROUTES_USING_STOP":"58","SE_ANNO_CAD_DATA":null},"bbox":[145.0201,-37.8425,145.0201,-37.8425]},{"type":"Feature","id":"PTV_METRO_TRAM_STOP.fid-364680f9_183c55e9406_56a7","geometry":{"type":"Point","coordinates":[145.0231,-37.8428]},"geometry_name":"SHAPE","properties":{"OBJECTID":648,"STOP_ID":"18784","STOP_NAME":"137-Kooyong Rd/Toorak Rd (Toorak)","LATITUDE":-37.842844,"LONGITUDE":145.023065,"TICKETZONE":"1","ROUTES_USING_STOP":"58","SE_ANNO_CAD_DATA":null},"bbox":[145.0231,-37.8428,145.0231,-37.8428]},{"type":"Feature","id":"PTV_METRO_TRAM_STOP.fid-364680f9_183c55e9406_56a8","geometry":{"type":"Point","coordinates":[145.0262,-37.8432]},"geometry_name":"SHAPE","properties":{"OBJECTID":649,"STOP_ID":"18785","STOP_NAME":"138-Moonga Rd/Toorak Rd (Toorak)","LATITUDE":-37.843231,"LONGITUDE":145.026248,"TICKETZONE":"1","ROUTES_USING_STOP":"58","SE_ANNO_CAD_DATA":null},"bbox":[145.0262,-37.8432,145.0262,-37.8432]},{"type":"Feature","id":"PTV_METRO_TRAM_STOP.fid-364680f9_183c55e9406_56a9","geometry":{"type":"Point","coordinates":[145.0298,-37.8436]},"geometry_name":"SHAPE","properties":{"OBJECTID":650,"STOP_ID":"18786","STOP_NAME":"139-Glenbervie Rd/Toorak Rd (Toorak)","LATITUDE":-37.843615,"LONGITUDE":145.029817,"TICKETZONE":"1","ROUTES_USING_STOP":"58","SE_ANNO_CAD_DATA":null},"bbox":[145.0298,-37.8436,145.0298,-37.8436]},{"type":"Feature","id":"PTV_METRO_TRAM_STOP.fid-364680f9_183c55e9406_56aa","geometry":{"type":"Point","coordinates":[144.9672,-37.7971]},"geometry_name":"SHAPE","properties":{"OBJECTID":651,"STOP_ID":"18789","STOP_NAME":"112-Lygon St/Elgin St (Carlton)","LATITUDE":-37.797113,"LONGITUDE":144.967159,"TICKETZONE":"1","ROUTES_USING_STOP":"6,1","SE_ANNO_CAD_DATA":null},"bbox":[144.9672,-37.7971,144.9672,-37.7971]},{"type":"Feature","id":"PTV_METRO_TRAM_STOP.fid-364680f9_183c55e9406_56ab","geometry":{"type":"Point","coordinates":[144.968,-37.7941]},"geometry_name":"SHAPE","properties":{"OBJECTID":652,"STOP_ID":"18790","STOP_NAME":"113-Lytton St/Lygon St (Carlton)","LATITUDE":-37.794127,"LONGITUDE":144.968025,"TICKETZONE":"1","ROUTES_USING_STOP":"6,1","SE_ANNO_CAD_DATA":null},"bbox":[144.968,-37.7941,144.968,-37.7941]},{"type":"Feature","id":"PTV_METRO_TRAM_STOP.fid-364680f9_183c55e9406_56ac","geometry":{"type":"Point","coordinates":[144.9683,-37.7927]},"geometry_name":"SHAPE","properties":{"OBJECTID":653,"STOP_ID":"18791","STOP_NAME":"114-Princes St/Lygon St (Carlton North)","LATITUDE":-37.792689,"LONGITUDE":144.968269,"TICKETZONE":"1","ROUTES_USING_STOP":"6,1","SE_ANNO_CAD_DATA":null},"bbox":[144.9683,-37.7927,144.9683,-37.7927]},{"type":"Feature","id":"PTV_METRO_TRAM_STOP.fid-364680f9_183c55e9406_56ad","geometry":{"type":"Point","coordinates":[144.9688,-37.7896]},"geometry_name":"SHAPE","properties":{"OBJECTID":654,"STOP_ID":"18792","STOP_NAME":"115-Melbourne Cemetery/Lygon St (Carlton North)","LATITUDE":-37.78958,"LONGITUDE":144.968797,"TICKETZONE":"1","ROUTES_USING_STOP":"6,1","SE_ANNO_CAD_DATA":null},"bbox":[144.9688,-37.7896,144.9688,-37.7896]},{"type":"Feature","id":"PTV_METRO_TRAM_STOP.fid-364680f9_183c55e9406_56ae","geometry":{"type":"Point","coordinates":[144.9692,-37.7874]},"geometry_name":"SHAPE","properties":{"OBJECTID":655,"STOP_ID":"18793","STOP_NAME":"116-Fenwick St/Lygon St (Carlton North)","LATITUDE":-37.78737,"LONGITUDE":144.969186,"TICKETZONE":"1","ROUTES_USING_STOP":"6,1","SE_ANNO_CAD_DATA":null},"bbox":[144.9692,-37.7874,144.9692,-37.7874]},{"type":"Feature","id":"PTV_METRO_TRAM_STOP.fid-364680f9_183c55e9406_56af","geometry":{"type":"Point","coordinates":[144.9697,-37.784]},"geometry_name":"SHAPE","properties":{"OBJECTID":656,"STOP_ID":"18794","STOP_NAME":"117-Richardson St/Lygon St (Carlton North)","LATITUDE":-37.784036,"LONGITUDE":144.969732,"TICKETZONE":"1","ROUTES_USING_STOP":"6,1","SE_ANNO_CAD_DATA":null},"bbox":[144.9697,-37.784,144.9697,-37.784]},{"type":"Feature","id":"PTV_METRO_TRAM_STOP.fid-364680f9_183c55e9406_56b0","geometry":{"type":"Point","coordinates":[144.9701,-37.7819]},"geometry_name":"SHAPE","properties":{"OBJECTID":657,"STOP_ID":"18795","STOP_NAME":"118-Pigdon St/Lygon St (Carlton North)","LATITUDE":-37.781924,"LONGITUDE":144.970074,"TICKETZONE":"1","ROUTES_USING_STOP":"6,1","SE_ANNO_CAD_DATA":null},"bbox":[144.9701,-37.7819,144.9701,-37.7819]},{"type":"Feature","id":"PTV_METRO_TRAM_STOP.fid-364680f9_183c55e9406_56b1","geometry":{"type":"Point","coordinates":[144.9822,-37.8453]},"geometry_name":"SHAPE","properties":{"OBJECTID":658,"STOP_ID":"18899","STOP_NAME":"26-Alfred Hospital/Commercial Rd (South Yarra)","LATITUDE":-37.845278,"LONGITUDE":144.982225,"TICKETZONE":"1","ROUTES_USING_STOP":"72","SE_ANNO_CAD_DATA":null},"bbox":[144.9822,-37.8453,144.9822,-37.8453]},{"type":"Feature","id":"PTV_METRO_TRAM_STOP.fid-364680f9_183c55e9406_56b2","geometry":{"type":"Point","coordinates":[144.9849,-37.8456]},"geometry_name":"SHAPE","properties":{"OBJECTID":659,"STOP_ID":"18918","STOP_NAME":"27-Punt Rd/Commercial Rd (South Yarra)","LATITUDE":-37.84563,"LONGITUDE":144.984863,"TICKETZONE":"1","ROUTES_USING_STOP":"72","SE_ANNO_CAD_DATA":null},"bbox":[144.9849,-37.8456,144.9849,-37.8456]},{"type":"Feature","id":"PTV_METRO_TRAM_STOP.fid-364680f9_183c55e9406_56b3","geometry":{"type":"Point","coordinates":[144.9874,-37.8459]},"geometry_name":"SHAPE","properties":{"OBJECTID":660,"STOP_ID":"18923","STOP_NAME":"28-Braille Library/Commercial Rd (South Yarra)","LATITUDE":-37.845899,"LONGITUDE":144.987413,"TICKETZONE":"1","ROUTES_USING_STOP":"72","SE_ANNO_CAD_DATA":null},"bbox":[144.9874,-37.8459,144.9874,-37.8459]},{"type":"Feature","id":"PTV_METRO_TRAM_STOP.fid-364680f9_183c55e9406_56b4","geometry":{"type":"Point","coordinates":[144.9906,-37.8463]},"geometry_name":"SHAPE","properties":{"OBJECTID":661,"STOP_ID":"18931","STOP_NAME":"29-Porter St/Commercial Rd (South Yarra)","LATITUDE":-37.846314,"LONGITUDE":144.990583,"TICKETZONE":"1","ROUTES_USING_STOP":"72","SE_ANNO_CAD_DATA":null},"bbox":[144.9906,-37.8463,144.9906,-37.8463]},{"type":"Feature","id":"PTV_METRO_TRAM_STOP.fid-364680f9_183c55e9406_56b5","geometry":{"type":"Point","coordinates":[144.9923,-37.8465]},"geometry_name":"SHAPE","properties":{"OBJECTID":662,"STOP_ID":"18933","STOP_NAME":"30-Prahran Market/Commercial Rd (South Yarra)","LATITUDE":-37.846541,"LONGITUDE":144.992271,"TICKETZONE":"1","ROUTES_USING_STOP":"72","SE_ANNO_CAD_DATA":null},"bbox":[144.9923,-37.8465,144.9923,-37.8465]},{"type":"Feature","id":"PTV_METRO_TRAM_STOP.fid-364680f9_183c55e9406_56b6","geometry":{"type":"Point","coordinates":[144.994,-37.8468]},"geometry_name":"SHAPE","properties":{"OBJECTID":663,"STOP_ID":"18934","STOP_NAME":"31-Chapel St/Commercial Rd (South Yarra)","LATITUDE":-37.84676,"LONGITUDE":144.994015,"TICKETZONE":"1","ROUTES_USING_STOP":"72","SE_ANNO_CAD_DATA":null},"bbox":[144.994,-37.8468,144.994,-37.8468]},{"type":"Feature","id":"PTV_METRO_TRAM_STOP.fid-364680f9_183c55e9406_56b7","geometry":{"type":"Point","coordinates":[144.9978,-37.8473]},"geometry_name":"SHAPE","properties":{"OBJECTID":664,"STOP_ID":"18935","STOP_NAME":"32-Surrey Rd/Malvern Rd (South Yarra)","LATITUDE":-37.847293,"LONGITUDE":144.997807,"TICKETZONE":"1","ROUTES_USING_STOP":"72","SE_ANNO_CAD_DATA":null},"bbox":[144.9978,-37.8473,144.9978,-37.8473]},{"type":"Feature","id":"PTV_METRO_TRAM_STOP.fid-364680f9_183c55e9406_56b8","geometry":{"type":"Point","coordinates":[145.0004,-37.8477]},"geometry_name":"SHAPE","properties":{"OBJECTID":665,"STOP_ID":"18936","STOP_NAME":"33-Francis St/Malvern Rd (South Yarra)","LATITUDE":-37.847653,"LONGITUDE":145.000434,"TICKETZONE":"1","ROUTES_USING_STOP":"72","SE_ANNO_CAD_DATA":null},"bbox":[145.0004,-37.8477,145.0004,-37.8477]},{"type":"Feature","id":"PTV_METRO_TRAM_STOP.fid-364680f9_183c55e9406_56b9","geometry":{"type":"Point","coordinates":[145.0031,-37.848]},"geometry_name":"SHAPE","properties":{"OBJECTID":666,"STOP_ID":"18937","STOP_NAME":"34-Williams Rd/Malvern Rd (South Yarra)","LATITUDE":-37.848004,"LONGITUDE":145.00305,"TICKETZONE":"1","ROUTES_USING_STOP":"72","SE_ANNO_CAD_DATA":null},"bbox":[145.0031,-37.848,145.0031,-37.848]},{"type":"Feature","id":"PTV_METRO_TRAM_STOP.fid-364680f9_183c55e9406_56ba","geometry":{"type":"Point","coordinates":[145.0067,-37.8485]},"geometry_name":"SHAPE","properties":{"OBJECTID":667,"STOP_ID":"18938","STOP_NAME":"35-Mathoura Rd/Malvern Rd (Toorak)","LATITUDE":-37.84848,"LONGITUDE":145.006685,"TICKETZONE":"1","ROUTES_USING_STOP":"72","SE_ANNO_CAD_DATA":null},"bbox":[145.0067,-37.8485,145.0067,-37.8485]},{"type":"Feature","id":"PTV_METRO_TRAM_STOP.fid-364680f9_183c55e9406_56bb","geometry":{"type":"Point","coordinates":[145.01,-37.8489]},"geometry_name":"SHAPE","properties":{"OBJECTID":668,"STOP_ID":"18939","STOP_NAME":"36-A'Beckett St/Malvern Rd (Toorak)","LATITUDE":-37.848923,"LONGITUDE":145.009992,"TICKETZONE":"1","ROUTES_USING_STOP":"72","SE_ANNO_CAD_DATA":null},"bbox":[145.01,-37.8489,145.01,-37.8489]},{"type":"Feature","id":"PTV_METRO_TRAM_STOP.fid-364680f9_183c55e9406_56bc","geometry":{"type":"Point","coordinates":[145.0121,-37.8492]},"geometry_name":"SHAPE","properties":{"OBJECTID":669,"STOP_ID":"18940","STOP_NAME":"37-Orrong Rd/Malvern Rd (Toorak)","LATITUDE":-37.849193,"LONGITUDE":145.012076,"TICKETZONE":"1","ROUTES_USING_STOP":"72","SE_ANNO_CAD_DATA":null},"bbox":[145.0121,-37.8492,145.0121,-37.8492]},{"type":"Feature","id":"PTV_METRO_TRAM_STOP.fid-364680f9_183c55e9406_56bd","geometry":{"type":"Point","coordinates":[145.0154,-37.8496]},"geometry_name":"SHAPE","properties":{"OBJECTID":670,"STOP_ID":"18941","STOP_NAME":"38-Clendon Rd/Malvern Rd (Toorak)","LATITUDE":-37.849618,"LONGITUDE":145.01536,"TICKETZONE":"1","ROUTES_USING_STOP":"72","SE_ANNO_CAD_DATA":null},"bbox":[145.0154,-37.8496,145.0154,-37.8496]},{"type":"Feature","id":"PTV_METRO_TRAM_STOP.fid-364680f9_183c55e9406_56be","geometry":{"type":"Point","coordinates":[145.0187,-37.8501]},"geometry_name":"SHAPE","properties":{"OBJECTID":671,"STOP_ID":"18942","STOP_NAME":"39-Irving Rd/Malvern Rd (Toorak)","LATITUDE":-37.850052,"LONGITUDE":145.018679,"TICKETZONE":"1","ROUTES_USING_STOP":"72","SE_ANNO_CAD_DATA":null},"bbox":[145.0187,-37.8501,145.0187,-37.8501]},{"type":"Feature","id":"PTV_METRO_TRAM_STOP.fid-364680f9_183c55e9406_56bf","geometry":{"type":"Point","coordinates":[145.0213,-37.8504]},"geometry_name":"SHAPE","properties":{"OBJECTID":672,"STOP_ID":"18943","STOP_NAME":"40-Kooyong Rd/Malvern Rd (Toorak)","LATITUDE":-37.850403,"LONGITUDE":145.021306,"TICKETZONE":"1","ROUTES_USING_STOP":"72","SE_ANNO_CAD_DATA":null},"bbox":[145.0213,-37.8504,145.0213,-37.8504]},{"type":"Feature","id":"PTV_METRO_TRAM_STOP.fid-364680f9_183c55e9406_56c0","geometry":{"type":"Point","coordinates":[145.024,-37.8508]},"geometry_name":"SHAPE","properties":{"OBJECTID":673,"STOP_ID":"18944","STOP_NAME":"41-Albany Rd/Malvern Rd (Toorak)","LATITUDE":-37.850763,"LONGITUDE":145.023956,"TICKETZONE":"1","ROUTES_USING_STOP":"72","SE_ANNO_CAD_DATA":null},"bbox":[145.024,-37.8508,145.024,-37.8508]},{"type":"Feature","id":"PTV_METRO_TRAM_STOP.fid-364680f9_183c55e9406_56c1","geometry":{"type":"Point","coordinates":[145.0261,-37.8511]},"geometry_name":"SHAPE","properties":{"OBJECTID":674,"STOP_ID":"18945","STOP_NAME":"42-Lauriston Girls School/Malvern Rd (Toorak)","LATITUDE":-37.851052,"LONGITUDE":145.026141,"TICKETZONE":"1","ROUTES_USING_STOP":"72","SE_ANNO_CAD_DATA":null},"bbox":[145.0261,-37.8511,145.0261,-37.8511]},{"type":"Feature","id":"PTV_METRO_TRAM_STOP.fid-364680f9_183c55e9406_56c2","geometry":{"type":"Point","coordinates":[145.0299,-37.8515]},"geometry_name":"SHAPE","properties":{"OBJECTID":675,"STOP_ID":"18946","STOP_NAME":"43-Glenferrie Rd/Malvern Rd (Toorak)","LATITUDE":-37.851547,"LONGITUDE":145.029867,"TICKETZONE":"1","ROUTES_USING_STOP":"72","SE_ANNO_CAD_DATA":null},"bbox":[145.0299,-37.8515,145.0299,-37.8515]},{"type":"Feature","id":"PTV_METRO_TRAM_STOP.fid-364680f9_183c55e9406_56c3","geometry":{"type":"Point","coordinates":[145.0325,-37.8519]},"geometry_name":"SHAPE","properties":{"OBJECTID":676,"STOP_ID":"18947","STOP_NAME":"44-Plant St/Malvern Rd (Malvern)","LATITUDE":-37.851897,"LONGITUDE":145.032495,"TICKETZONE":"1","ROUTES_USING_STOP":"72","SE_ANNO_CAD_DATA":null},"bbox":[145.0325,-37.8519,145.0325,-37.8519]},{"type":"Feature","id":"PTV_METRO_TRAM_STOP.fid-364680f9_183c55e9406_56c4","geometry":{"type":"Point","coordinates":[145.0353,-37.8523]},"geometry_name":"SHAPE","properties":{"OBJECTID":677,"STOP_ID":"18948","STOP_NAME":"45-Elizabeth St/Malvern Rd (Malvern)","LATITUDE":-37.852259,"LONGITUDE":145.035304,"TICKETZONE":"1","ROUTES_USING_STOP":"72","SE_ANNO_CAD_DATA":null},"bbox":[145.0353,-37.8523,145.0353,-37.8523]},{"type":"Feature","id":"PTV_METRO_TRAM_STOP.fid-364680f9_183c55e9406_56c5","geometry":{"type":"Point","coordinates":[145.0392,-37.8528]},"geometry_name":"SHAPE","properties":{"OBJECTID":678,"STOP_ID":"18949","STOP_NAME":"46-Meredith St/Malvern Rd (Malvern)","LATITUDE":-37.852784,"LONGITUDE":145.039234,"TICKETZONE":"1","ROUTES_USING_STOP":"72","SE_ANNO_CAD_DATA":null},"bbox":[145.0392,-37.8528,145.0392,-37.8528]},{"type":"Feature","id":"PTV_METRO_TRAM_STOP.fid-364680f9_183c55e9406_56c6","geometry":{"type":"Point","coordinates":[145.042,-37.8531]},"geometry_name":"SHAPE","properties":{"OBJECTID":679,"STOP_ID":"18950","STOP_NAME":"47-Tooronga Rd/Malvern Rd (Malvern)","LATITUDE":-37.853128,"LONGITUDE":145.041987,"TICKETZONE":"1","ROUTES_USING_STOP":"72","SE_ANNO_CAD_DATA":null},"bbox":[145.042,-37.8531,145.042,-37.8531]},{"type":"Feature","id":"PTV_METRO_TRAM_STOP.fid-364680f9_183c55e9406_56c7","geometry":{"type":"Point","coordinates":[145.0456,-37.8536]},"geometry_name":"SHAPE","properties":{"OBJECTID":680,"STOP_ID":"18951","STOP_NAME":"48-Edgar St/Malvern Rd (Malvern)","LATITUDE":-37.853556,"LONGITUDE":145.045555,"TICKETZONE":"1","ROUTES_USING_STOP":"72","SE_ANNO_CAD_DATA":null},"bbox":[145.0456,-37.8536,145.0456,-37.8536]},{"type":"Feature","id":"PTV_METRO_TRAM_STOP.fid-364680f9_183c55e9406_56c8","geometry":{"type":"Point","coordinates":[145.0483,-37.8539]},"geometry_name":"SHAPE","properties":{"OBJECTID":681,"STOP_ID":"18952","STOP_NAME":"49-Kenilworth Gr/Malvern Rd (Malvern)","LATITUDE":-37.8539,"LONGITUDE":145.04832,"TICKETZONE":"1","ROUTES_USING_STOP":"72","SE_ANNO_CAD_DATA":null},"bbox":[145.0483,-37.8539,145.0483,-37.8539]},{"type":"Feature","id":"PTV_METRO_TRAM_STOP.fid-364680f9_183c55e9406_56c9","geometry":{"type":"Point","coordinates":[145.0515,-37.8543]},"geometry_name":"SHAPE","properties":{"OBJECTID":682,"STOP_ID":"18953","STOP_NAME":"50-Burke Rd/Malvern Rd (Malvern)","LATITUDE":-37.854322,"LONGITUDE":145.051491,"TICKETZONE":"1","ROUTES_USING_STOP":"72","SE_ANNO_CAD_DATA":null},"bbox":[145.0515,-37.8543,145.0515,-37.8543]},{"type":"Feature","id":"PTV_METRO_TRAM_STOP.fid-364680f9_183c55e9406_56ca","geometry":{"type":"Point","coordinates":[145.0527,-37.8529]},"geometry_name":"SHAPE","properties":{"OBJECTID":683,"STOP_ID":"18954","STOP_NAME":"51-Gardiner Railway Station/Burke Rd (Hawthorn East)","LATITUDE":-37.852854,"LONGITUDE":145.052677,"TICKETZONE":"1","ROUTES_USING_STOP":"72","SE_ANNO_CAD_DATA":null},"bbox":[145.0527,-37.8529,145.0527,-37.8529]},{"type":"Feature","id":"PTV_METRO_TRAM_STOP.fid-364680f9_183c55e9406_56cb","geometry":{"type":"Point","coordinates":[145.053,-37.8498]},"geometry_name":"SHAPE","properties":{"OBJECTID":684,"STOP_ID":"18955","STOP_NAME":"52-Harris Ave/Burke Rd (Hawthorn East)","LATITUDE":-37.849778,"LONGITUDE":145.053042,"TICKETZONE":"1","ROUTES_USING_STOP":"72","SE_ANNO_CAD_DATA":null},"bbox":[145.053,-37.8498,145.053,-37.8498]},{"type":"Feature","id":"PTV_METRO_TRAM_STOP.fid-364680f9_183c55e9406_56cc","geometry":{"type":"Point","coordinates":[145.0534,-37.8482]},"geometry_name":"SHAPE","properties":{"OBJECTID":685,"STOP_ID":"18956","STOP_NAME":"53-Faircroft Ave/Burke Rd (Hawthorn East)","LATITUDE":-37.848171,"LONGITUDE":145.053392,"TICKETZONE":"1","ROUTES_USING_STOP":"72","SE_ANNO_CAD_DATA":null},"bbox":[145.0534,-37.8482,145.0534,-37.8482]},{"type":"Feature","id":"PTV_METRO_TRAM_STOP.fid-364680f9_183c55e9406_56cd","geometry":{"type":"Point","coordinates":[145.0539,-37.8458]},"geometry_name":"SHAPE","properties":{"OBJECTID":686,"STOP_ID":"18957","STOP_NAME":"54-Toorak Rd/Burke Rd (Glen Iris)","LATITUDE":-37.8458,"LONGITUDE":145.053874,"TICKETZONE":"1","ROUTES_USING_STOP":"72","SE_ANNO_CAD_DATA":null},"bbox":[145.0539,-37.8458,145.0539,-37.8458]},{"type":"Feature","id":"PTV_METRO_TRAM_STOP.fid-364680f9_183c55e9406_56ce","geometry":{"type":"Point","coordinates":[145.0542,-37.8438]},"geometry_name":"SHAPE","properties":{"OBJECTID":687,"STOP_ID":"18958","STOP_NAME":"55-Middle Rd/Burke Rd (Hawthorn East)","LATITUDE":-37.843796,"LONGITUDE":145.054245,"TICKETZONE":"1","ROUTES_USING_STOP":"72","SE_ANNO_CAD_DATA":null},"bbox":[145.0542,-37.8438,145.0542,-37.8438]},{"type":"Feature","id":"PTV_METRO_TRAM_STOP.fid-364680f9_183c55e9406_56cf","geometry":{"type":"Point","coordinates":[145.0546,-37.8419]},"geometry_name":"SHAPE","properties":{"OBJECTID":688,"STOP_ID":"18959","STOP_NAME":"56-Anderson Rd/Burke Rd (Hawthorn East)","LATITUDE":-37.841856,"LONGITUDE":145.054626,"TICKETZONE":"1","ROUTES_USING_STOP":"72","SE_ANNO_CAD_DATA":null},"bbox":[145.0546,-37.8419,145.0546,-37.8419]},{"type":"Feature","id":"PTV_METRO_TRAM_STOP.fid-364680f9_183c55e9406_56d0","geometry":{"type":"Point","coordinates":[145.0549,-37.8403]},"geometry_name":"SHAPE","properties":{"OBJECTID":689,"STOP_ID":"18960","STOP_NAME":"57-Pine Ave/Burke Rd (Hawthorn East)","LATITUDE":-37.840257,"LONGITUDE":145.054941,"TICKETZONE":"1","ROUTES_USING_STOP":"72","SE_ANNO_CAD_DATA":null},"bbox":[145.0549,-37.8403,145.0549,-37.8403]},{"type":"Feature","id":"PTV_METRO_TRAM_STOP.fid-364680f9_183c55e9406_56d1","geometry":{"type":"Point","coordinates":[145.0553,-37.8382]},"geometry_name":"SHAPE","properties":{"OBJECTID":690,"STOP_ID":"18961","STOP_NAME":"58-Leura Gr/Burke Rd (Hawthorn East)","LATITUDE":-37.838164,"LONGITUDE":145.055336,"TICKETZONE":"1","ROUTES_USING_STOP":"72","SE_ANNO_CAD_DATA":null},"bbox":[145.0553,-37.8382,145.0553,-37.8382]},{"type":"Feature","id":"PTV_METRO_TRAM_STOP.fid-364680f9_183c55e9406_56d2","geometry":{"type":"Point","coordinates":[145.0558,-37.8354]},"geometry_name":"SHAPE","properties":{"OBJECTID":691,"STOP_ID":"18962","STOP_NAME":"59-Pleasant Rd/Burke Rd (Hawthorn East)","LATITUDE":-37.835415,"LONGITUDE":145.055829,"TICKETZONE":"1","ROUTES_USING_STOP":"72","SE_ANNO_CAD_DATA":null},"bbox":[145.0558,-37.8354,145.0558,-37.8354]},{"type":"Feature","id":"PTV_METRO_TRAM_STOP.fid-364680f9_183c55e9406_56d3","geometry":{"type":"Point","coordinates":[145.0562,-37.8337]},"geometry_name":"SHAPE","properties":{"OBJECTID":692,"STOP_ID":"18963","STOP_NAME":"60-Campbell Rd/Burke Rd (Hawthorn East)","LATITUDE":-37.833717,"LONGITUDE":145.056158,"TICKETZONE":"1","ROUTES_USING_STOP":"72","SE_ANNO_CAD_DATA":null},"bbox":[145.0562,-37.8337,145.0562,-37.8337]},{"type":"Feature","id":"PTV_METRO_TRAM_STOP.fid-364680f9_183c55e9406_56d4","geometry":{"type":"Point","coordinates":[145.0566,-37.8316]},"geometry_name":"SHAPE","properties":{"OBJECTID":693,"STOP_ID":"18964","STOP_NAME":"61-Riversdale Rd/Burke Rd (Hawthorn East)","LATITUDE":-37.83157,"LONGITUDE":145.056566,"TICKETZONE":"1","ROUTES_USING_STOP":"72","SE_ANNO_CAD_DATA":null},"bbox":[145.0566,-37.8316,145.0566,-37.8316]},{"type":"Feature","id":"PTV_METRO_TRAM_STOP.fid-364680f9_183c55e9406_56d5","geometry":{"type":"Point","coordinates":[145.0568,-37.8302]},"geometry_name":"SHAPE","properties":{"OBJECTID":694,"STOP_ID":"18965","STOP_NAME":"62-Camberwell Shopping Centre/755 Burke Rd (Hawthorn East)","LATITUDE":-37.830204,"LONGITUDE":145.056818,"TICKETZONE":"1","ROUTES_USING_STOP":"72","SE_ANNO_CAD_DATA":null},"bbox":[145.0568,-37.8302,145.0568,-37.8302]},{"type":"Feature","id":"PTV_METRO_TRAM_STOP.fid-364680f9_183c55e9406_56d6","geometry":{"type":"Point","coordinates":[145.0572,-37.8282]},"geometry_name":"SHAPE","properties":{"OBJECTID":695,"STOP_ID":"18966","STOP_NAME":"63-Prospect Hill Rd/Burke Rd (Hawthorn East)","LATITUDE":-37.828219,"LONGITUDE":145.057222,"TICKETZONE":"1","ROUTES_USING_STOP":"72","SE_ANNO_CAD_DATA":null},"bbox":[145.0572,-37.8282,145.0572,-37.8282]},{"type":"Feature","id":"PTV_METRO_TRAM_STOP.fid-364680f9_183c55e9406_56d7","geometry":{"type":"Point","coordinates":[145.0576,-37.8261]},"geometry_name":"SHAPE","properties":{"OBJECTID":696,"STOP_ID":"18967","STOP_NAME":"64-Camberwell Station/Burke Rd (Hawthorn East)","LATITUDE":-37.826054,"LONGITUDE":145.057631,"TICKETZONE":"1","ROUTES_USING_STOP":"72","SE_ANNO_CAD_DATA":null},"bbox":[145.0576,-37.8261,145.0576,-37.8261]},{"type":"Feature","id":"PTV_METRO_TRAM_STOP.fid-364680f9_183c55e9406_56d8","geometry":{"type":"Point","coordinates":[145.0581,-37.8236]},"geometry_name":"SHAPE","properties":{"OBJECTID":697,"STOP_ID":"18968","STOP_NAME":"65-Victoria Rd/Burke Rd (Hawthorn East)","LATITUDE":-37.823583,"LONGITUDE":145.05806,"TICKETZONE":"1","ROUTES_USING_STOP":"72","SE_ANNO_CAD_DATA":null},"bbox":[145.0581,-37.8236,145.0581,-37.8236]},{"type":"Feature","id":"PTV_METRO_TRAM_STOP.fid-364680f9_183c55e9406_56d9","geometry":{"type":"Point","coordinates":[145.0585,-37.8215]},"geometry_name":"SHAPE","properties":{"OBJECTID":698,"STOP_ID":"18969","STOP_NAME":"66-Rathmines Rd/Burke Rd (Hawthorn East)","LATITUDE":-37.821481,"LONGITUDE":145.058467,"TICKETZONE":"1","ROUTES_USING_STOP":"72","SE_ANNO_CAD_DATA":null},"bbox":[145.0585,-37.8215,145.0585,-37.8215]},{"type":"Feature","id":"PTV_METRO_TRAM_STOP.fid-364680f9_183c55e9406_56da","geometry":{"type":"Point","coordinates":[145.0591,-37.8186]},"geometry_name":"SHAPE","properties":{"OBJECTID":699,"STOP_ID":"18970","STOP_NAME":"67-Camberwell Girls Grammar/Burke Rd (Hawthorn East)","LATITUDE":-37.818589,"LONGITUDE":145.059054,"TICKETZONE":"1","ROUTES_USING_STOP":"72","SE_ANNO_CAD_DATA":null},"bbox":[145.0591,-37.8186,145.0591,-37.8186]},{"type":"Feature","id":"PTV_METRO_TRAM_STOP.fid-364680f9_183c55e9406_56db","geometry":{"type":"Point","coordinates":[145.0595,-37.816]},"geometry_name":"SHAPE","properties":{"OBJECTID":700,"STOP_ID":"18971","STOP_NAME":"68-Mont Albert Rd/Burke Rd (Kew)","LATITUDE":-37.815992,"LONGITUDE":145.059542,"TICKETZONE":"1","ROUTES_USING_STOP":"72","SE_ANNO_CAD_DATA":null},"bbox":[145.0595,-37.816,145.0595,-37.816]},{"type":"Feature","id":"PTV_METRO_TRAM_STOP.fid-364680f9_183c55e9406_56dc","geometry":{"type":"Point","coordinates":[145.0599,-37.8141]},"geometry_name":"SHAPE","properties":{"OBJECTID":701,"STOP_ID":"18972","STOP_NAME":"69-Sackville St/Burke Rd (Kew)","LATITUDE":-37.814132,"LONGITUDE":145.059875,"TICKETZONE":"1","ROUTES_USING_STOP":"72","SE_ANNO_CAD_DATA":null},"bbox":[145.0599,-37.8141,145.0599,-37.8141]},{"type":"Feature","id":"PTV_METRO_TRAM_STOP.fid-364680f9_183c55e9406_56dd","geometry":{"type":"Point","coordinates":[144.9884,-37.8701]},"geometry_name":"SHAPE","properties":{"OBJECTID":702,"STOP_ID":"18973","STOP_NAME":"36-St Kilda Primary School/Brighton Rd (Balaclava)","LATITUDE":-37.870059,"LONGITUDE":144.988415,"TICKETZONE":"1","ROUTES_USING_STOP":"67","SE_ANNO_CAD_DATA":null},"bbox":[144.9884,-37.8701,144.9884,-37.8701]},{"type":"Feature","id":"PTV_METRO_TRAM_STOP.fid-364680f9_183c55e9406_56de","geometry":{"type":"Point","coordinates":[144.9895,-37.8718]},"geometry_name":"SHAPE","properties":{"OBJECTID":703,"STOP_ID":"18974","STOP_NAME":"37-Chapel St/Brighton Rd (Balaclava)","LATITUDE":-37.871771,"LONGITUDE":144.989494,"TICKETZONE":"1","ROUTES_USING_STOP":"67","SE_ANNO_CAD_DATA":null},"bbox":[144.9895,-37.8718,144.9895,-37.8718]},{"type":"Feature","id":"PTV_METRO_TRAM_STOP.fid-364680f9_183c55e9406_56df","geometry":{"type":"Point","coordinates":[144.9901,-37.8728]},"geometry_name":"SHAPE","properties":{"OBJECTID":704,"STOP_ID":"18975","STOP_NAME":"38-Brunning St/Brighton Rd (Balaclava)","LATITUDE":-37.8728,"LONGITUDE":144.990125,"TICKETZONE":"1","ROUTES_USING_STOP":"67","SE_ANNO_CAD_DATA":null},"bbox":[144.9901,-37.8728,144.9901,-37.8728]},{"type":"Feature","id":"PTV_METRO_TRAM_STOP.fid-364680f9_183c55e9406_56e0","geometry":{"type":"Point","coordinates":[144.9925,-37.8766]},"geometry_name":"SHAPE","properties":{"OBJECTID":705,"STOP_ID":"18976","STOP_NAME":"39-Glen Eira Rd/Brighton Rd (Balaclava)","LATITUDE":-37.876636,"LONGITUDE":144.992545,"TICKETZONE":"1","ROUTES_USING_STOP":"67","SE_ANNO_CAD_DATA":null},"bbox":[144.9925,-37.8766,144.9925,-37.8766]},{"type":"Feature","id":"PTV_METRO_TRAM_STOP.fid-364680f9_183c55e9406_56e1","geometry":{"type":"Point","coordinates":[144.994,-37.8789]},"geometry_name":"SHAPE","properties":{"OBJECTID":706,"STOP_ID":"18977","STOP_NAME":"40-Scott St/Brighton Rd (Balaclava)","LATITUDE":-37.878886,"LONGITUDE":144.993973,"TICKETZONE":"1","ROUTES_USING_STOP":"67","SE_ANNO_CAD_DATA":null},"bbox":[144.994,-37.8789,144.994,-37.8789]},{"type":"Feature","id":"PTV_METRO_TRAM_STOP.fid-364680f9_183c55e9406_56e2","geometry":{"type":"Point","coordinates":[144.9952,-37.8808]},"geometry_name":"SHAPE","properties":{"OBJECTID":707,"STOP_ID":"18978","STOP_NAME":"41-Coleridge St/Brighton Rd (Balaclava)","LATITUDE":-37.880798,"LONGITUDE":144.995161,"TICKETZONE":"1","ROUTES_USING_STOP":"67","SE_ANNO_CAD_DATA":null},"bbox":[144.9952,-37.8808,144.9952,-37.8808]},{"type":"Feature","id":"PTV_METRO_TRAM_STOP.fid-364680f9_183c55e9406_56e3","geometry":{"type":"Point","coordinates":[144.9965,-37.883]},"geometry_name":"SHAPE","properties":{"OBJECTID":708,"STOP_ID":"18979","STOP_NAME":"42-Hotham St/Brighton Rd (Balaclava)","LATITUDE":-37.882957,"LONGITUDE":144.996501,"TICKETZONE":"1","ROUTES_USING_STOP":"67","SE_ANNO_CAD_DATA":null},"bbox":[144.9965,-37.883,144.9965,-37.883]},{"type":"Feature","id":"PTV_METRO_TRAM_STOP.fid-364680f9_183c55e9406_56e4","geometry":{"type":"Point","coordinates":[144.9978,-37.8838]},"geometry_name":"SHAPE","properties":{"OBJECTID":709,"STOP_ID":"18980","STOP_NAME":"43-Brighton Rd/Glenhuntly Rd (Elsternwick)","LATITUDE":-37.8838,"LONGITUDE":144.997842,"TICKETZONE":"1","ROUTES_USING_STOP":"67","SE_ANNO_CAD_DATA":null},"bbox":[144.9978,-37.8838,144.9978,-37.8838]},{"type":"Feature","id":"PTV_METRO_TRAM_STOP.fid-364680f9_183c55e9406_56e5","geometry":{"type":"Point","coordinates":[145.0004,-37.8841]},"geometry_name":"SHAPE","properties":{"OBJECTID":710,"STOP_ID":"18981","STOP_NAME":"44-Elsternwick Railway Station/Glenhuntly Rd (Elsternwick)","LATITUDE":-37.88415,"LONGITUDE":145.00038,"TICKETZONE":"1","ROUTES_USING_STOP":"67","SE_ANNO_CAD_DATA":null},"bbox":[145.0004,-37.8841,145.0004,-37.8841]},{"type":"Feature","id":"PTV_METRO_TRAM_STOP.fid-364680f9_183c55e9406_56e6","geometry":{"type":"Point","coordinates":[145.0038,-37.8846]},"geometry_name":"SHAPE","properties":{"OBJECTID":711,"STOP_ID":"18982","STOP_NAME":"45-Elsternwick Shopping Centre/Glenhuntly Rd (Elsternwick)","LATITUDE":-37.884613,"LONGITUDE":145.003812,"TICKETZONE":"1","ROUTES_USING_STOP":"67","SE_ANNO_CAD_DATA":null},"bbox":[145.0038,-37.8846,145.0038,-37.8846]},{"type":"Feature","id":"PTV_METRO_TRAM_STOP.fid-364680f9_183c55e9406_56e7","geometry":{"type":"Point","coordinates":[145.0057,-37.8849]},"geometry_name":"SHAPE","properties":{"OBJECTID":712,"STOP_ID":"18983","STOP_NAME":"46-Orrong Rd/Glenhuntly Rd (Elsternwick)","LATITUDE":-37.884862,"LONGITUDE":145.005705,"TICKETZONE":"1","ROUTES_USING_STOP":"67","SE_ANNO_CAD_DATA":null},"bbox":[145.0057,-37.8849,145.0057,-37.8849]},{"type":"Feature","id":"PTV_METRO_TRAM_STOP.fid-364680f9_183c55e9406_56e8","geometry":{"type":"Point","coordinates":[145.0091,-37.8853]},"geometry_name":"SHAPE","properties":{"OBJECTID":713,"STOP_ID":"18984","STOP_NAME":"47-Shoobra Rd/Glenhuntly Rd (Elsternwick)","LATITUDE":-37.885271,"LONGITUDE":145.009127,"TICKETZONE":"1","ROUTES_USING_STOP":"67","SE_ANNO_CAD_DATA":null},"bbox":[145.0091,-37.8853,145.0091,-37.8853]},{"type":"Feature","id":"PTV_METRO_TRAM_STOP.fid-364680f9_183c55e9406_56e9","geometry":{"type":"Point","coordinates":[145.0123,-37.8856]},"geometry_name":"SHAPE","properties":{"OBJECTID":714,"STOP_ID":"18985","STOP_NAME":"48-Parkside St/Glenhuntly Rd (Elsternwick)","LATITUDE":-37.885649,"LONGITUDE":145.012267,"TICKETZONE":"1","ROUTES_USING_STOP":"67","SE_ANNO_CAD_DATA":null},"bbox":[145.0123,-37.8856,145.0123,-37.8856]},{"type":"Feature","id":"PTV_METRO_TRAM_STOP.fid-364680f9_183c55e9406_56ea","geometry":{"type":"Point","coordinates":[145.0149,-37.886]},"geometry_name":"SHAPE","properties":{"OBJECTID":715,"STOP_ID":"18986","STOP_NAME":"49-Kooyong Rd/Glenhuntly Rd (Elsternwick)","LATITUDE":-37.885963,"LONGITUDE":145.014874,"TICKETZONE":"1","ROUTES_USING_STOP":"67","SE_ANNO_CAD_DATA":null},"bbox":[145.0149,-37.886,145.0149,-37.886]},{"type":"Feature","id":"PTV_METRO_TRAM_STOP.fid-364680f9_183c55e9406_56eb","geometry":{"type":"Point","coordinates":[145.0183,-37.8864]},"geometry_name":"SHAPE","properties":{"OBJECTID":716,"STOP_ID":"18987","STOP_NAME":"50-Royal Pde/Glenhuntly Rd (Caulfield)","LATITUDE":-37.886391,"LONGITUDE":145.01833,"TICKETZONE":"1","ROUTES_USING_STOP":"67","SE_ANNO_CAD_DATA":null},"bbox":[145.0183,-37.8864,145.0183,-37.8864]},{"type":"Feature","id":"PTV_METRO_TRAM_STOP.fid-364680f9_183c55e9406_56ec","geometry":{"type":"Point","coordinates":[145.0175,-37.9111]},"geometry_name":"SHAPE","properties":{"OBJECTID":717,"STOP_ID":"19000","STOP_NAME":"67-Rogers Ave/Hawthorn Rd (Brighton East)","LATITUDE":-37.911078,"LONGITUDE":145.017531,"TICKETZONE":"1","ROUTES_USING_STOP":"64","SE_ANNO_CAD_DATA":null},"bbox":[145.0175,-37.9111,145.0175,-37.9111]},{"type":"Feature","id":"PTV_METRO_TRAM_STOP.fid-364680f9_183c55e9406_56ed","geometry":{"type":"Point","coordinates":[145.018,-37.9085]},"geometry_name":"SHAPE","properties":{"OBJECTID":718,"STOP_ID":"19001","STOP_NAME":"66-Union St/Hawthorn Rd (Brighton East)","LATITUDE":-37.908517,"LONGITUDE":145.017964,"TICKETZONE":"1","ROUTES_USING_STOP":"64","SE_ANNO_CAD_DATA":null},"bbox":[145.018,-37.9085,145.018,-37.9085]},{"type":"Feature","id":"PTV_METRO_TRAM_STOP.fid-364680f9_183c55e9406_56ee","geometry":{"type":"Point","coordinates":[145.0183,-37.9064]},"geometry_name":"SHAPE","properties":{"OBJECTID":719,"STOP_ID":"19002","STOP_NAME":"65-Davey Ave/Hawthorn Rd (Brighton East)","LATITUDE":-37.90637,"LONGITUDE":145.018329,"TICKETZONE":"1","ROUTES_USING_STOP":"64","SE_ANNO_CAD_DATA":null},"bbox":[145.0183,-37.9064,145.0183,-37.9064]},{"type":"Feature","id":"PTV_METRO_TRAM_STOP.fid-364680f9_183c55e9406_56ef","geometry":{"type":"Point","coordinates":[145.0188,-37.9038]},"geometry_name":"SHAPE","properties":{"OBJECTID":720,"STOP_ID":"19003","STOP_NAME":"64-Taylor St/Hawthorn Rd (Brighton East)","LATITUDE":-37.903782,"LONGITUDE":145.018808,"TICKETZONE":"1","ROUTES_USING_STOP":"64","SE_ANNO_CAD_DATA":null},"bbox":[145.0188,-37.9038,145.0188,-37.9038]},{"type":"Feature","id":"PTV_METRO_TRAM_STOP.fid-364680f9_183c55e9406_56f0","geometry":{"type":"Point","coordinates":[145.0193,-37.9012]},"geometry_name":"SHAPE","properties":{"OBJECTID":721,"STOP_ID":"19004","STOP_NAME":"63-North Rd/Hawthorn Rd (Brighton East)","LATITUDE":-37.901196,"LONGITUDE":145.019332,"TICKETZONE":"1","ROUTES_USING_STOP":"64","SE_ANNO_CAD_DATA":null},"bbox":[145.0193,-37.9012,145.0193,-37.9012]},{"type":"Feature","id":"PTV_METRO_TRAM_STOP.fid-364680f9_183c55e9406_56f1","geometry":{"type":"Point","coordinates":[145.0198,-37.899]},"geometry_name":"SHAPE","properties":{"OBJECTID":722,"STOP_ID":"19005","STOP_NAME":"62-Gardenvale Rd/Hawthorn Rd (Caulfield South)","LATITUDE":-37.898969,"LONGITUDE":145.019801,"TICKETZONE":"1","ROUTES_USING_STOP":"64","SE_ANNO_CAD_DATA":null},"bbox":[145.0198,-37.899,145.0198,-37.899]},{"type":"Feature","id":"PTV_METRO_TRAM_STOP.fid-364680f9_183c55e9406_56f2","geometry":{"type":"Point","coordinates":[145.0203,-37.8966]},"geometry_name":"SHAPE","properties":{"OBJECTID":723,"STOP_ID":"19006","STOP_NAME":"61-Stone St/Hawthorn Rd (Caulfield South)","LATITUDE":-37.896552,"LONGITUDE":145.020253,"TICKETZONE":"1","ROUTES_USING_STOP":"64","SE_ANNO_CAD_DATA":null},"bbox":[145.0203,-37.8966,145.0203,-37.8966]},{"type":"Feature","id":"PTV_METRO_TRAM_STOP.fid-364680f9_183c55e9406_56f3","geometry":{"type":"Point","coordinates":[145.0205,-37.8949]},"geometry_name":"SHAPE","properties":{"OBJECTID":724,"STOP_ID":"19007","STOP_NAME":"60-Dover St/Hawthorn Rd (Caulfield South)","LATITUDE":-37.894881,"LONGITUDE":145.020548,"TICKETZONE":"1","ROUTES_USING_STOP":"64","SE_ANNO_CAD_DATA":null},"bbox":[145.0205,-37.8949,145.0205,-37.8949]},{"type":"Feature","id":"PTV_METRO_TRAM_STOP.fid-364680f9_183c55e9406_56f4","geometry":{"type":"Point","coordinates":[145.0209,-37.893]},"geometry_name":"SHAPE","properties":{"OBJECTID":725,"STOP_ID":"19008","STOP_NAME":"59-Princes Park/Hawthorn Rd (Caulfield South)","LATITUDE":-37.89304,"LONGITUDE":145.020904,"TICKETZONE":"1","ROUTES_USING_STOP":"64","SE_ANNO_CAD_DATA":null},"bbox":[145.0209,-37.893,145.0209,-37.893]},{"type":"Feature","id":"PTV_METRO_TRAM_STOP.fid-364680f9_183c55e9406_56f5","geometry":{"type":"Point","coordinates":[145.0216,-37.8896]},"geometry_name":"SHAPE","properties":{"OBJECTID":726,"STOP_ID":"19009","STOP_NAME":"58-Sycamore St/Hawthorn Rd (Caulfield South)","LATITUDE":-37.889608,"LONGITUDE":145.021553,"TICKETZONE":"1","ROUTES_USING_STOP":"64","SE_ANNO_CAD_DATA":null},"bbox":[145.0216,-37.8896,145.0216,-37.8896]},{"type":"Feature","id":"PTV_METRO_TRAM_STOP.fid-364680f9_183c55e9406_56f6","geometry":{"type":"Point","coordinates":[145.0221,-37.8867]},"geometry_name":"SHAPE","properties":{"OBJECTID":727,"STOP_ID":"19010","STOP_NAME":"57-Glenhuntly Rd/Hawthorn Rd (Caulfield)","LATITUDE":-37.886661,"LONGITUDE":145.022098,"TICKETZONE":"1","ROUTES_USING_STOP":"64","SE_ANNO_CAD_DATA":null},"bbox":[145.0221,-37.8867,145.0221,-37.8867]},{"type":"Feature","id":"PTV_METRO_TRAM_STOP.fid-364680f9_183c55e9406_56f7","geometry":{"type":"Point","coordinates":[145.0224,-37.8848]},"geometry_name":"SHAPE","properties":{"OBJECTID":728,"STOP_ID":"19011","STOP_NAME":"56-Briggs St/Hawthorn Rd (Caulfield)","LATITUDE":-37.884838,"LONGITUDE":145.022443,"TICKETZONE":"1","ROUTES_USING_STOP":"64","SE_ANNO_CAD_DATA":null},"bbox":[145.0224,-37.8848,145.0224,-37.8848]},{"type":"Feature","id":"PTV_METRO_TRAM_STOP.fid-364680f9_183c55e9406_56f8","geometry":{"type":"Point","coordinates":[145.0229,-37.8824]},"geometry_name":"SHAPE","properties":{"OBJECTID":729,"STOP_ID":"19012","STOP_NAME":"55-Sylverly Gr/Hawthorn Rd (Caulfield North)","LATITUDE":-37.882449,"LONGITUDE":145.022916,"TICKETZONE":"1","ROUTES_USING_STOP":"64","SE_ANNO_CAD_DATA":null},"bbox":[145.0229,-37.8824,145.0229,-37.8824]},{"type":"Feature","id":"PTV_METRO_TRAM_STOP.fid-364680f9_183c55e9406_56f9","geometry":{"type":"Point","coordinates":[145.0234,-37.8799]},"geometry_name":"SHAPE","properties":{"OBJECTID":730,"STOP_ID":"19013","STOP_NAME":"54-Glen Eira Rd/Hawthorn Rd (Caulfield North)","LATITUDE":-37.879934,"LONGITUDE":145.023404,"TICKETZONE":"1","ROUTES_USING_STOP":"64","SE_ANNO_CAD_DATA":null},"bbox":[145.0234,-37.8799,145.0234,-37.8799]},{"type":"Feature","id":"PTV_METRO_TRAM_STOP.fid-364680f9_183c55e9406_56fa","geometry":{"type":"Point","coordinates":[145.0239,-37.8772]},"geometry_name":"SHAPE","properties":{"OBJECTID":731,"STOP_ID":"19014","STOP_NAME":"53-Northcote Ave/Hawthorn Rd (Caulfield North)","LATITUDE":-37.877212,"LONGITUDE":145.02392,"TICKETZONE":"1","ROUTES_USING_STOP":"64","SE_ANNO_CAD_DATA":null},"bbox":[145.0239,-37.8772,145.0239,-37.8772]},{"type":"Feature","id":"PTV_METRO_TRAM_STOP.fid-364680f9_183c55e9406_56fb","geometry":{"type":"Point","coordinates":[145.0244,-37.8749]},